$GPRMC,005916.00,A,4229.6311833,N,08325.9808228,W,0.006,221.7,231110,0.0,E,D*24
$GPGSA,M,3,27,26,15,22,06,29,03,14,09,18,21,,1.4,0.8,1.1*3E
$GPGGA,005916.10,4229.6309,N,08325.9810,W,9,11,0.8,273.34,M,-34.70,M,03,0133*57
$GPGST,005916.10,2.37,1.50,0.99,69.2938,1.44,1.07,2.22*55
$GPRMC,005916.10,A,4229.6308992,N,08325.9809982,W,0.028,228.2,231110,0.0,E,D*2D
$GPGSA,M,3,27,26,15,22,06,29,03,14,09,18,21,,1.4,0.8,1.1*3E
$GPGGA,005916.20,4229.6309,N,08325.9810,W,9,11,0.8,273.34,M,-34.70,M,03,0133*54
$GPGST,005916.20,2.37,1.50,0.99,69.2943,1.44,1.07,2.22*5A
$GPRMC,005916.20,A,4229.6309000,N,08325.9809964,W,0.035,232.4,231110,0.0,E,D*24
$GPGSA,M,3,27,26,15,22,06,29,03,14,09,18,21,,1.4,0.8,1.1*3E
$GPGGA,005916.30,4229.6310,N,08325.9809,W,9,11,0.8,273.66,M,-34.70,M,03,0133*52
$GPGST,005916.30,2.37,1.50,0.99,69.2955,1.44,1.07,2.22*5C
$GPRMC,005916.30,A,4229.6310404,N,08325.9809086,W,0.008,169.3,231110,0.0,E,D*2C
$GPGSA,M,3,27,26,15,22,06,29,03,14,09,18,21,,1.4,0.8,1.1*3E
$GPGGA,005916.40,4229.6310,N,08325.9809,W,9,11,0.8,273.69,M,-34.70,M,02,0133*5B
$GPGST,005916.40,2.39,1.50,0.99,69.2801,1.44,1.07,2.22*55
$GPRMC,005916.40,A,4229.6310487,N,08325.9808994,W,0.028,186.8,231110,0.0,E,D*23
$GPGSA,M,3,27,26,15,22,06,29,03,14,09,18,21,,1.4,0.8,1.1*3E
$GPGGA,005916.50,4229.6310,N,08325.9809,W,9,11,0.8,273.50,M,-34.70,M,02,0133*50
$GPGST,005916.50,2.39,1.50,0.99,69.2809,1.44,1.07,2.22*5C
$GPRMC,005916.50,A,4229.6309717,N,08325.9809486,W,0.022,3.8,231110,0.0,E,D*29
$GPGSA,M,3,27,26,15,22,06,29,03,14,09,18,21,,1.4,0.8,1.1*3E
$GPGGA,005916.60,4229.6310,N,08325.9809,W,9,11,0.8,273.49,M,-34.70,M,02,0133*5B
$GPGST,005916.60,2.38,1.50,0.99,69.2912,1.44,1.07,2.22*55
$GPRMC,005916.60,A,4229.6309659,N,08325.9809500,W,0.024,315.6,231110,0.0,E,D*22
$GPGSA,M,3,27,26,15,22,06,29,03,14,09,18,21,,1.4,0.8,1.1*3E
$GPGGA,005916.70,4229.6311,N,08325.9809,W,9,11,0.8,273.73,M,-34.70,M,02,0133*52
$GPGST,005916.70,2.38,1.50,0.99,69.2927,1.44,1.07,2.22*52
$GPRMC,005916.70,A,4229.6310702,N,08325.9808864,W,0.016,77.9,231110,0.0,E,D*13
$GPGSA,M,3,27,26,15,22,06,29,03,14,09,18,21,,1.4,0.8,1.1*3E
$GPGGA,005916.80,4229.6311,N,08325.9809,W,9,11,0.8,273.70,M,-34.70,M,02,0133*5E
$GPGST,005916.80,2.33,1.49,0.99,69.3578,1.44,1.07,2.21*5A
$GPRMC,005916.80,A,4229.6310514,N,08325.9808967,W,0.046,1.9,231110,0.0,E,D*2F
$GPGSA,M,3,27,26,15,22,06,29,03,14,09,18,21,,1.4,0.8,1.1*3E
$GPGGA,005916.90,4229.6310,N,08325.9810,W,9,11,0.8,273.49,M,-34.70,M,02,0133*5C
$GPGST,005916.90,2.33,1.49,0.99,69.3589,1.44,1.07,2.21*55
$GPRMC,005916.90,A,4229.6309650,N,08325.9809516,W,0.017,7.7,231110,0.0,E,D*22
$GPGSA,M,3,27,26,15,22,06,29,03,14,09,18,21,,1.4,0.8,1.1*3E
$GPGGA,005917.00,4229.6310,N,08325.9810,W,9,11,0.8,273.49,M,-34.70,M,03,0133*55
$GPGST,005917.00,2.33,1.49,0.99,69.3576,1.44,1.07,2.21*5D
$GPRMC,005917.00,A,4229.6309658,N,08325.9809521,W,0.011,221.4,231110,0.0,E,D*25
$GPGSA,M,3,27,26,15,22,06,29,03,14,09,18,21,,1.4,0.8,1.1*3E
$GPGGA,005917.10,4229.6312,N,08325.9808,W,9,11,0.8,273.95,M,-34.70,M,03,0133*5E
$GPGST,005917.10,2.36,1.49,0.99,69.3225,1.44,1.07,2.21*58
$GPRMC,005917.10,A,4229.6311667,N,08325.9808284,W,0.015,141.8,231110,0.0,E,D*25
$GPGSA,M,3,27,26,15,22,06,29,03,09,18,21,,,1.5,0.9,1.2*38
$GPGGA,005917.20,4229.6312,N,08325.9808,W,9,10,0.9,274.15,M,-34.70,M,03,0133*52
$GPGST,005917.20,2.02,1.56,0.99,68.7846,1.50,1.08,2.27*54
$GPRMC,005917.20,A,4229.6312481,N,08325.9807775,W,0.006,238.5,231110,0.0,E,D*29
$GPGSA,M,3,27,26,15,22,06,29,03,14,09,18,21,,1.4,0.8,1.1*3E
$GPGGA,005917.30,4229.6312,N,08325.9808,W,9,11,0.8,274.05,M,-34.70,M,03,0133*52
$GPGST,005917.30,2.32,1.49,0.99,69.3755,1.44,1.07,2.21*5C
$GPRMC,005917.30,A,4229.6312090,N,08325.9808004,W,0.028,45.6,231110,0.0,E,D*15
$GPGSA,M,3,27,26,15,22,06,29,03,14,09,18,21,,1.4,0.8,1.1*3E
$GPGGA,005917.40,4229.6312,N,08325.9808,W,9,11,0.8,274.06,M,-34.70,M,02,0133*57
$GPGST,005917.40,2.32,1.49,0.99,69.3721,1.44,1.07,2.21*58
$GPRMC,005917.40,A,4229.6312065,N,08325.9808007,W,0.037,223.1,231110,0.0,E,D*20
$GPGSA,M,3,27,26,15,22,06,29,03,14,09,18,21,,1.4,0.8,1.1*3E
$GPGGA,005917.50,4229.6312,N,08325.9808,W,9,11,0.8,274.04,M,-34.70,M,02,0133*54
$GPGST,005917.50,2.32,1.49,0.99,69.3730,1.44,1.07,2.21*59
$GPRMC,005917.50,A,4229.6312040,N,08325.9808026,W,0.020,196.5,231110,0.0,E,D*2A
$GPGSA,M,3,27,26,15,22,06,29,03,14,09,18,21,,1.4,0.8,1.1*3E
$GPGGA,005917.60,4229.6312,N,08325.9808,W,9,11,0.8,274.04,M,-34.70,M,02,0133*57
$GPGST,005917.60,2.32,1.49,0.99,69.3863,1.44,1.07,2.21*53
$GPRMC,005917.60,A,4229.6312012,N,08325.9808020,W,0.078,203.9,231110,0.0,E,D*26
$GPGSA,M,3,27,26,15,22,06,29,03,09,18,21,,,1.5,0.9,1.2*38
$GPGGA,005917.70,4229.6312,N,08325.9808,W,9,10,0.9,274.15,M,-34.70,M,02,0133*56
$GPGST,005917.70,2.02,1.56,0.99,68.7846,1.50,1.08,2.27*51
$GPRMC,005917.70,A,4229.6312435,N,08325.9807735,W,0.238,186.2,231110,0.0,E,D*29
$GPGSA,M,3,27,26,15,22,06,29,03,09,18,21,,,1.5,0.9,1.2*38
$GPGGA,005917.80,4229.6312,N,08325.9808,W,9,10,0.9,274.15,M,-34.70,M,02,0133*59
$GPGST,005917.80,2.02,1.56,0.99,68.7854,1.50,1.08,2.27*5D
$GPRMC,005917.80,A,4229.6312352,N,08325.9807750,W,0.388,188.8,231110,0.0,E,D*2D
$GPGSA,M,3,27,26,15,22,06,29,03,14,09,18,21,,1.4,0.8,1.1*3E
$GPGGA,005917.90,4229.6312,N,08325.9808,W,9,11,0.8,274.01,M,-34.70,M,02,0133*5D
$GPGST,005917.90,2.31,1.49,0.99,69.4034,1.43,1.07,2.21*55
$GPRMC,005917.90,A,4229.6311614,N,08325.9808180,W,0.481,189.8,231110,0.0,E,D*23
$GPGSA,M,3,27,26,15,22,06,29,03,14,09,18,21,,1.4,0.8,1.1*3E
$GPGGA,005918.00,4229.6311,N,08325.9808,W,9,11,0.8,274.00,M,-34.70,M,03,0133*58
$GPGST,005918.00,2.28,1.48,0.99,69.4556,1.43,1.07,2.20*5A
$GPRMC,005918.00,A,4229.6311424,N,08325.9808220,W,0.536,189.6,231110,0.0,E,D*2E
$GPGSA,M,3,27,26,15,22,06,29,03,14,09,18,21,,1.4,0.8,1.1*3E
$GPGGA,005918.10,4229.6311,N,08325.9809,W,9,11,0.8,273.89,M,-34.70,M,03,0133*5E
$GPGST,005918.10,2.28,1.48,0.99,69.4571,1.43,1.07,2.20*5E
$GPRMC,005918.10,A,4229.6310804,N,08325.9808567,W,0.521,190.1,231110,0.0,E,D*2D
$GPGSA,M,3,27,26,15,22,06,29,03,14,09,18,21,,1.4,0.8,1.1*3E
$GPGGA,005918.20,4229.6311,N,08325.9809,W,9,11,0.8,273.90,M,-34.70,M,03,0133*55
$GPGST,005918.20,2.28,1.48,0.99,69.4600,1.43,1.07,2.20*58
$GPRMC,005918.20,A,4229.6310636,N,08325.9808578,W,0.647,185.8,231110,0.0,E,D*21
$GPGSA,M,3,27,26,15,22,06,29,03,14,09,18,21,,1.4,0.8,1.1*3E
$GPGGA,005918.30,4229.6310,N,08325.9809,W,9,11,0.8,273.80,M,-34.70,M,03,0133*54
$GPGST,005918.30,2.21,1.46,0.99,69.6260,1.42,1.06,2.19*54
$GPRMC,005918.30,A,4229.6309954,N,08325.9808925,W,0.888,191.3,231110,0.0,E,D*24
$GPGSA,M,3,27,26,15,22,06,29,03,14,09,18,21,,1.4,0.8,1.1*3E
$GPGGA,005918.40,4229.6310,N,08325.9809,W,9,11,0.8,273.78,M,-34.70,M,03,0133*54
$GPGST,005918.40,2.21,1.46,0.99,69.6276,1.42,1.06,2.19*54
$GPRMC,005918.40,A,4229.6309697,N,08325.9808978,W,0.923,189.7,231110,0.0,E,D*26
$GPGSA,M,3,27,26,15,22,06,29,03,14,09,18,21,,1.4,0.8,1.1*3E
$GPGST,005918.50,2.26,1.48,0.99,69.5010,1.43,1.06,2.20*56
$GPGGA,005918.50,4229.6311,N,08325.9808,W,9,11,0.8,274.09,M,-34.70,M,03,0133*54
$GPRMC,005918.50,A,4229.6310725,N,08325.9808214,W,1.115,186.9,231110,0.0,E,D*2B
$GPGSA,M,3,27,26,15,22,06,29,03,14,09,18,21,,1.4,0.8,1.1*3E
$GPGGA,005918.60,4229.6310,N,08325.9808,W,9,11,0.8,274.09,M,-34.70,M,03,0133*56
$GPGST,005918.60,2.26,1.48,0.99,69.5022,1.43,1.06,2.20*54
$GPRMC,005918.60,A,4229.6310355,N,08325.9808288,W,1.433,189.4,231110,0.0,E,D*2D
$GPGSA,M,3,27,26,15,22,06,29,03,14,09,18,21,,1.4,0.8,1.1*3E
$GPGGA,005918.70,4229.6310,N,08325.9808,W,9,11,0.8,274.07,M,-34.70,M,03,0133*59
$GPGST,005918.70,2.26,1.48,0.99,69.5022,1.43,1.06,2.20*55
$GPRMC,005918.70,A,4229.6309905,N,08325.9808416,W,1.634,190.4,231110,0.0,E,D*27
$GPGSA,M,3,27,26,15,22,06,29,03,14,09,18,21,,1.4,0.8,1.1*3E
$GPGGA,005918.80,4229.6309,N,08325.9809,W,9,11,0.8,274.07,M,-34.70,M,03,0133*5F
$GPGST,005918.80,2.22,1.47,0.99,69.6165,1.42,1.06,2.19*5B
$GPRMC,005918.80,A,4229.6309377,N,08325.9808564,W,1.956,190.7,231110,0.0,E,D*2B
$GPGSA,M,3,27,26,15,22,06,29,03,14,09,18,21,,1.4,0.8,1.1*3E
$GPGGA,005918.90,4229.6308,N,08325.9809,W,9,11,0.8,273.97,M,-34.70,M,03,0133*51
$GPGST,005918.90,2.22,1.47,0.99,69.6190,1.42,1.06,2.19*50
$GPRMC,005918.90,A,4229.6308398,N,08325.9808968,W,2.110,191.0,231110,0.0,E,D*25
$GPGSA,M,3,27,26,15,22,06,29,03,14,09,18,21,,1.4,0.8,1.1*3E
$GPGGA,005919.00,4229.6308,N,08325.9809,W,9,11,0.8,273.95,M,-34.70,M,04,0133*5C
$GPGST,005919.00,2.19,1.46,0.99,69.7028,1.41,1.06,2.18*50
$GPRMC,005919.00,A,4229.6307681,N,08325.9809111,W,2.502,187.5,231110,0.0,E,D*2D
$GPGSA,M,3,27,26,15,22,06,29,03,14,09,18,21,,1.4,0.8,1.1*3E
$GPGGA,005919.10,4229.6307,N,08325.9809,W,9,11,0.8,273.97,M,-34.70,M,04,0133*50
$GPGST,005919.10,2.19,1.46,0.99,69.7044,1.41,1.06,2.18*5B
$GPRMC,005919.10,A,4229.6307034,N,08325.9809255,W,2.859,190.6,231110,0.0,E,D*21
$GPGSA,M,3,27,26,15,22,06,29,03,14,09,18,21,,1.4,0.8,1.1*3E
$GPGGA,005919.20,4229.6306,N,08325.9809,W,9,11,0.8,273.97,M,-34.70,M,04,0133*52
$GPGST,005919.20,2.18,1.46,0.99,69.7382,1.41,1.06,2.18*50
$GPRMC,005919.20,A,4229.6306185,N,08325.9809492,W,3.129,190.8,231110,0.0,E,D*24
$GPGSA,M,3,27,26,15,22,06,29,03,14,09,18,21,,1.4,0.8,1.1*3E
$GPGGA,005919.30,4229.6305,N,08325.9810,W,9,11,0.8,273.98,M,-34.70,M,04,0133*57
$GPGST,005919.30,2.18,1.46,0.99,69.7389,1.41,1.06,2.18*5A
$GPRMC,005919.30,A,4229.6305341,N,08325.9809666,W,3.450,190.5,231110,0.0,E,D*23
$GPGSA,M,3,27,26,15,22,06,29,03,14,09,18,21,,1.4,0.8,1.1*3E
$GPGGA,005919.40,4229.6304,N,08325.9810,W,9,11,0.8,273.98,M,-34.70,M,04,0133*51
$GPGST,005919.40,2.18,1.46,0.99,69.7407,1.41,1.06,2.18*5C
$GPRMC,005919.40,A,4229.6304377,N,08325.9809876,W,3.739,191.0,231110,0.0,E,D*27
$GPGSA,M,3,27,26,15,22,06,29,03,14,09,18,21,,1.4,0.8,1.1*3E
$GPGGA,005919.50,4229.6304,N,08325.9810,W,9,11,0.8,274.08,M,-34.70,M,04,0133*5E
$GPGST,005919.50,2.20,1.46,0.99,69.6893,1.41,1.06,2.18*56
$GPRMC,005919.50,A,4229.6303724,N,08325.9809891,W,4.148,191.3,231110,0.0,E,D*2E
$GPGSA,M,3,27,26,15,22,06,29,03,14,09,18,21,,1.4,0.8,1.1*3E
$GPGGA,005919.60,4229.6303,N,08325.9810,W,9,11,0.8,274.09,M,-34.70,M,04,0133*5B
$GPGST,005919.60,2.20,1.46,0.99,69.6906,1.41,1.06,2.18*58
$GPRMC,005919.60,A,4229.6302606,N,08325.9810124,W,4.251,189.4,231110,0.0,E,D*27
$GPGSA,M,3,27,26,15,22,06,29,03,14,09,18,21,,1.4,0.8,1.1*3E
$GPGGA,005919.70,4229.6301,N,08325.9811,W,9,11,0.8,273.90,M,-34.70,M,04,0133*5E
$GPGST,005919.70,2.26,1.48,0.99,69.5223,1.43,1.06,2.20*57
$GPRMC,005919.70,A,4229.6300550,N,08325.9810910,W,4.634,190.4,231110,0.0,E,D*24
$GPGSA,M,3,27,26,15,22,06,29,03,14,09,18,21,,1.4,0.8,1.1*3E
$GPGGA,005919.80,4229.6299,N,08325.9811,W,9,11,0.8,273.90,M,-34.70,M,04,0133*51
$GPGST,005919.80,2.26,1.48,0.99,69.5237,1.43,1.06,2.20*5D
$GPRMC,005919.80,A,4229.6299260,N,08325.9811228,W,4.963,190.2,231110,0.0,E,D*24
$GPGSA,M,3,27,26,15,22,06,29,03,14,09,18,21,,1.4,0.8,1.1*3E
$GPGGA,005919.90,4229.6298,N,08325.9811,W,9,11,0.8,274.00,M,-34.70,M,04,0133*5F
$GPGST,005919.90,2.26,1.48,0.99,69.5276,1.43,1.06,2.20*59
$GPRMC,005919.90,A,4229.6298247,N,08325.9811324,W,5.387,191.1,231110,0.0,E,D*2F
$GPGSA,M,3,27,26,15,22,06,29,03,14,09,18,21,,1.4,0.8,1.1*3E
$GPGGA,005920.00,4229.6297,N,08325.9812,W,9,11,0.8,273.96,M,-34.70,M,05,0133*59
$GPGST,005920.00,2.19,1.46,0.99,69.7290,1.41,1.06,2.18*5B
$GPRMC,005920.00,A,4229.6296603,N,08325.9811793,W,5.654,190.0,231110,0.0,E,D*25
$GPGSA,M,3,27,26,15,22,06,29,03,14,09,18,21,,1.4,0.8,1.1*3E
$GPGGA,005920.10,4229.6295,N,08325.9812,W,9,11,0.8,273.85,M,-34.70,M,05,0133*58
$GPGST,005920.10,2.19,1.46,0.99,69.7317,1.41,1.06,2.18*54
$GPRMC,005920.10,A,4229.6294538,N,08325.9812482,W,5.953,190.5,231110,0.0,E,D*20
$GPGSA,M,3,27,26,15,22,06,29,03,14,09,18,21,,1.4,0.8,1.1*3E
$GPGGA,005920.20,4229.6293,N,08325.9813,W,9,11,0.8,273.85,M,-34.70,M,05,0133*5C
$GPGST,005920.20,2.18,1.45,0.99,69.7601,1.41,1.06,2.18*57
$GPRMC,005920.20,A,4229.6292886,N,08325.9812888,W,6.144,190.2,231110,0.0,E,D*21
$GPGSA,M,3,27,26,15,22,06,29,03,14,09,18,21,,1.4,0.8,1.1*3E
$GPGGA,005920.30,4229.6291,N,08325.9813,W,9,11,0.8,273.89,M,-34.70,M,05,0133*53
$GPGST,005920.30,2.18,1.45,0.99,69.7631,1.41,1.06,2.18*55
$GPRMC,005920.30,A,4229.6291296,N,08325.9813210,W,6.592,189.9,231110,0.0,E,D*2E
$GPGSA,M,3,27,26,15,22,06,29,03,14,09,18,21,,1.4,0.8,1.1*3E
$GPGGA,005920.40,4229.6289,N,08325.9814,W,9,11,0.8,273.87,M,-34.70,M,05,0133*54
$GPGST,005920.40,2.16,1.45,0.99,69.8471,1.40,1.06,2.17*5B
$GPRMC,005920.40,A,4229.6289407,N,08325.9813717,W,6.810,190.7,231110,0.0,E,D*2D
$GPGSA,M,3,27,26,15,22,06,29,03,14,09,18,21,,1.4,0.8,1.1*3E
$GPGGA,005920.50,4229.6287,N,08325.9814,W,9,11,0.8,273.83,M,-34.70,M,05,0133*5F
$GPGST,005920.50,2.16,1.45,0.99,69.8481,1.40,1.06,2.17*55
$GPRMC,005920.50,A,4229.6287388,N,08325.9814327,W,7.096,191.6,231110,0.0,E,D*25
$GPGSA,M,3,27,26,15,22,06,29,03,14,09,18,21,,1.4,0.8,1.1*3E
$GPGGA,005920.60,4229.6285,N,08325.9815,W,9,11,0.8,273.84,M,-34.70,M,05,0133*58
$GPGST,005920.60,2.16,1.45,0.99,69.8483,1.40,1.06,2.17*54
$GPRMC,005920.60,A,4229.6285450,N,08325.9814849,W,7.146,191.5,231110,0.0,E,D*2A
$GPGSA,M,3,27,26,15,22,06,29,03,14,09,18,21,,1.4,0.8,1.1*3E
$GPGGA,005920.70,4229.6284,N,08325.9815,W,9,11,0.8,273.91,M,-34.70,M,05,0133*5C
$GPGST,005920.70,2.16,1.45,0.99,69.8551,1.40,1.06,2.17*5B
$GPRMC,005920.70,A,4229.6283739,N,08325.9815240,W,7.514,191.8,231110,0.0,E,D*2D
$GPGSA,M,3,27,26,15,22,06,29,03,14,09,18,21,,1.4,0.8,1.1*3E
$GPGGA,005920.80,4229.6282,N,08325.9816,W,9,11,0.8,273.90,M,-34.70,M,05,0133*57
$GPGST,005920.80,2.16,1.45,0.99,69.8531,1.40,1.06,2.17*52
$GPRMC,005920.80,A,4229.6281664,N,08325.9815835,W,7.784,192.4,231110,0.0,E,D*25
$GPGSA,M,3,27,26,15,22,06,29,03,14,09,18,21,,1.4,0.8,1.1*3E
$GPGGA,005920.90,4229.6279,N,08325.9817,W,9,11,0.8,273.88,M,-34.70,M,05,0133*5A
$GPGST,005920.90,2.15,1.45,0.99,69.8701,1.40,1.06,2.17*51
$GPRMC,005920.90,A,4229.6279404,N,08325.9816572,W,7.918,193.5,231110,0.0,E,D*21
$GPGSA,M,3,27,26,15,22,06,29,03,14,09,18,21,,1.4,0.8,1.1*3E
$GPGST,005921.00,2.16,1.45,0.99,69.8739,1.40,1.06,2.17*51
$GPGGA,005921.00,4229.6277,N,08325.9817,W,9,11,0.8,273.87,M,-34.70,M,06,0133*50
$GPRMC,005921.00,A,4229.6277179,N,08325.9817284,W,8.284,193.5,231110,0.0,E,D*26
$GPGSA,M,3,27,26,15,22,06,29,03,14,09,18,21,,1.4,0.8,1.1*3E
$GPGGA,005921.10,4229.6275,N,08325.9818,W,9,11,0.8,273.82,M,-34.70,M,06,0133*59
$GPGST,005921.10,2.16,1.45,0.99,69.8762,1.40,1.06,2.17*5E
$GPRMC,005921.10,A,4229.6274726,N,08325.9818224,W,8.380,194.4,231110,0.0,E,D*2E
$GPGSA,M,3,27,26,15,22,06,29,03,14,09,18,21,,1.4,0.8,1.1*3E
$GPGGA,005921.20,4229.6272,N,08325.9819,W,9,11,0.8,273.81,M,-34.70,M,06,0133*5F
$GPGST,005921.20,2.16,1.45,0.99,69.8612,1.40,1.06,2.17*5B
$GPRMC,005921.20,A,4229.6272445,N,08325.9819040,W,8.593,195.4,231110,0.0,E,D*29
$GPGSA,M,3,27,26,15,22,06,29,03,14,09,18,21,,1.4,0.8,1.1*3E
$GPGGA,005921.30,4229.6270,N,08325.9820,W,9,11,0.8,273.84,M,-34.70,M,06,0133*53
$GPGST,005921.30,2.16,1.45,0.99,69.8646,1.40,1.06,2.17*5B
$GPRMC,005921.30,A,4229.6270328,N,08325.9819851,W,8.747,196.6,231110,0.0,E,D*24
$GPGSA,M,3,27,26,15,22,06,29,03,14,09,18,21,,1.4,0.8,1.1*3E
$GPGGA,005921.40,4229.6268,N,08325.9821,W,9,11,0.8,273.84,M,-34.70,M,06,0133*5C
$GPGST,005921.40,2.16,1.45,0.99,69.8574,1.40,1.06,2.17*5E
$GPRMC,005921.40,A,4229.6267969,N,08325.9820900,W,9.117,198.9,231110,0.0,E,D*26
$GPGSA,M,3,27,26,15,22,06,29,03,14,09,18,21,,1.4,0.8,1.1*3E
$GPGGA,005921.50,4229.6266,N,08325.9822,W,9,11,0.8,273.90,M,-34.70,M,02,0133*51
$GPGST,005921.50,2.16,1.45,0.99,69.8566,1.40,1.06,2.17*5C
$GPRMC,005921.50,A,4229.6265840,N,08325.9821867,W,9.368,199.7,231110,0.0,E,D*2B
$GPGSA,M,3,27,26,15,22,06,29,03,14,09,18,21,,1.4,0.8,1.1*3E
$GPGGA,005921.60,4229.6263,N,08325.9823,W,9,11,0.8,273.89,M,-34.70,M,02,0133*5E
$GPGST,005921.60,2.16,1.45,0.99,69.8432,1.40,1.06,2.17*5F
$GPRMC,005921.60,A,4229.6263346,N,08325.9823006,W,9.674,199.6,231110,0.0,E,D*27
$GPGSA,M,3,27,26,15,22,06,29,03,14,09,18,21,,1.4,0.8,1.1*3E
$GPGGA,005921.70,4229.6261,N,08325.9824,W,9,11,0.8,273.89,M,-34.70,M,02,0133*5A
$GPGST,005921.70,2.16,1.45,0.99,69.8491,1.40,1.06,2.17*57
$GPRMC,005921.70,A,4229.6260818,N,08325.9824295,W,9.765,201.4,231110,0.0,E,D*2B
$GPGSA,M,3,27,26,15,22,06,29,03,14,09,18,21,,1.4,0.8,1.1*3E
$GPGGA,005921.80,4229.6258,N,08325.9826,W,9,11,0.8,273.88,M,-34.70,M,02,0133*5C
$GPGST,005921.80,2.16,1.45,0.99,69.8495,1.40,1.06,2.17*5C
$GPRMC,005921.80,A,4229.6258297,N,08325.9825720,W,10.051,203.3,231110,0.0,E,D*15
$GPGSA,M,3,27,26,15,22,06,29,03,14,09,18,21,,1.4,0.8,1.1*3E
$GPGGA,005921.90,4229.6255,N,08325.9827,W,9,11,0.8,273.79,M,-34.70,M,02,0133*5F
$GPGST,005921.90,2.16,1.45,0.99,69.8515,1.40,1.06,2.17*54
$GPRMC,005921.90,A,4229.6255425,N,08325.9827474,W,10.094,205.0,231110,0.0,E,D*1A
$GPGSA,M,3,27,26,15,22,06,29,03,14,09,18,21,,1.4,0.8,1.1*3E
$GPGGA,005922.00,4229.6253,N,08325.9829,W,9,11,0.8,273.79,M,-34.70,M,03,0133*5C
$GPGST,005922.00,2.16,1.45,0.99,69.8544,1.40,1.06,2.17*5A
$GPRMC,005922.00,A,4229.6252879,N,08325.9829129,W,10.234,206.4,231110,0.0,E,D*1E
$GPGSA,M,3,27,26,15,22,06,29,03,14,09,18,21,,1.4,0.8,1.1*3E
$GPGGA,005922.10,4229.6250,N,08325.9831,W,9,11,0.8,273.82,M,-34.70,M,03,0133*53
$GPGST,005922.10,2.15,1.45,0.99,69.8952,1.40,1.06,2.17*53
$GPRMC,005922.10,A,4229.6250463,N,08325.9830813,W,10.346,207.8,231110,0.0,E,D*1B
$GPGSA,M,3,27,26,15,22,06,29,03,14,09,18,21,,1.4,0.8,1.1*3E
$GPGGA,005922.20,4229.6248,N,08325.9833,W,9,11,0.8,273.82,M,-34.70,M,03,0133*5B
$GPGST,005922.20,2.15,1.45,0.99,69.8909,1.40,1.06,2.17*5E
$GPRMC,005922.20,A,4229.6247920,N,08325.9832680,W,10.557,209.5,231110,0.0,E,D*17
$GPGSA,M,3,27,26,15,22,06,29,03,14,09,18,21,,1.4,0.8,1.1*3E
$GPGST,005922.30,2.15,1.45,0.99,69.8889,1.40,1.06,2.17*56
$GPGGA,005922.30,4229.6246,N,08325.9835,W,9,11,0.8,273.86,M,-34.70,M,03,0133*56
$GPRMC,005922.30,A,4229.6245662,N,08325.9834633,W,10.547,213.2,231110,0.0,E,D*1E
$GPGSA,M,3,27,26,15,22,06,29,03,14,09,18,21,,1.4,0.8,1.1*3E
$GPGGA,005922.40,4229.6243,N,08325.9837,W,9,11,0.8,273.85,M,-34.70,M,02,0133*54
$GPGST,005922.40,2.15,1.44,0.99,69.9090,1.40,1.06,2.17*51
$GPRMC,005922.40,A,4229.6243185,N,08325.9836900,W,10.759,215.3,231110,0.0,E,D*16
$GPGSA,M,3,27,26,15,22,06,29,03,14,09,18,21,,1.4,0.8,1.1*3E
$GPGGA,005922.50,4229.6241,N,08325.9839,W,9,11,0.8,273.83,M,-34.70,M,02,0133*5F
$GPGST,005922.50,2.15,1.44,0.99,69.9090,1.40,1.06,2.17*50
$GPRMC,005922.50,A,4229.6240624,N,08325.9839322,W,10.940,216.3,231110,0.0,E,D*18
$GPGSA,M,3,27,26,15,22,06,29,03,14,09,18,21,,1.4,0.8,1.1*3E
$GPGST,005922.60,2.15,1.44,0.99,69.9210,1.40,1.06,2.17*59
$GPGGA,005922.60,4229.6238,N,08325.9842,W,9,11,0.8,273.83,M,-34.70,M,02,0133*5E
$GPRMC,005922.60,A,4229.6238197,N,08325.9841857,W,11.112,218.5,231110,0.0,E,D*1B
$GPGSA,M,3,27,26,15,22,06,29,03,14,09,18,21,,1.4,0.8,1.1*3E
$GPGGA,005922.70,4229.6236,N,08325.9844,W,9,11,0.8,273.90,M,-34.70,M,02,0133*55
$GPGST,005922.70,2.15,1.44,0.99,69.9226,1.40,1.06,2.17*5D
$GPRMC,005922.70,A,4229.6236095,N,08325.9844374,W,11.168,220.9,231110,0.0,E,D*12
$GPGSA,M,3,27,26,15,22,06,29,03,14,09,18,21,,1.4,0.8,1.1*3E
$GPGGA,005922.80,4229.6234,N,08325.9847,W,9,11,0.8,273.91,M,-34.70,M,02,0133*5A
$GPGST,005922.80,2.15,1.44,0.99,69.9330,1.40,1.06,2.17*54
$GPRMC,005922.80,A,4229.6233765,N,08325.9847164,W,11.306,222.6,231110,0.0,E,D*17
$GPGSA,M,3,27,26,15,22,06,29,03,14,09,18,21,,1.4,0.8,1.1*3E
$GPGGA,005922.90,4229.6232,N,08325.9850,W,9,11,0.8,273.90,M,-34.70,M,02,0133*5A
$GPGST,005922.90,2.15,1.44,0.99,69.9345,1.40,1.06,2.17*57
$GPRMC,005922.90,A,4229.6231513,N,08325.9850124,W,11.356,225.2,231110,0.0,E,D*13
$GPGSA,M,3,27,26,15,22,06,29,03,14,09,18,21,,1.4,0.8,1.1*3E
$GPGGA,005923.00,4229.6229,N,08325.9853,W,9,11,0.8,273.91,M,-34.70,M,03,0133*5B
$GPGST,005923.00,2.15,1.44,0.99,69.9366,1.40,1.06,2.17*5E
$GPRMC,005923.00,A,4229.6229366,N,08325.9853288,W,11.435,229.3,231110,0.0,E,D*1F
$GPGSA,M,3,27,26,15,22,06,29,03,14,09,18,21,,1.4,0.8,1.1*3E
$GPGGA,005923.10,4229.6227,N,08325.9857,W,9,11,0.8,273.93,M,-34.70,M,03,0133*52
$GPGST,005923.10,2.15,1.44,0.99,69.9372,1.40,1.06,2.17*5A
$GPRMC,005923.10,A,4229.6227396,N,08325.9856580,W,11.588,231.7,231110,0.0,E,D*1F
$GPGSA,M,3,27,26,15,22,06,29,03,14,09,18,21,,1.4,0.8,1.1*3E
$GPGGA,005923.20,4229.6225,N,08325.9860,W,9,11,0.8,273.94,M,-34.70,M,03,0133*50
$GPGST,005923.20,2.15,1.44,0.99,69.9510,1.40,1.06,2.17*5B
$GPRMC,005923.20,A,4229.6225413,N,08325.9860047,W,11.768,233.6,231110,0.0,E,D*10
$GPGSA,M,3,27,26,15,22,06,29,03,14,09,18,21,,1.4,0.8,1.1*3E
$GPGGA,005923.30,4229.6223,N,08325.9864,W,9,11,0.8,273.94,M,-34.70,M,03,0133*53
$GPGST,005923.30,2.15,1.44,0.99,69.9557,1.40,1.06,2.17*59
$GPRMC,005923.30,A,4229.6223464,N,08325.9863643,W,11.888,234.8,231110,0.0,E,D*1E
$GPGSA,M,3,27,26,15,22,06,29,03,14,09,18,21,,1.4,0.8,1.1*3E
$GPGGA,005923.40,4229.6222,N,08325.9867,W,9,11,0.8,273.94,M,-34.70,M,03,0133*56
$GPGST,005923.40,2.15,1.44,0.99,69.9502,1.40,1.06,2.17*5E
$GPRMC,005923.40,A,4229.6221620,N,08325.9867405,W,12.049,237.5,231110,0.0,E,D*15
$GPGSA,M,3,27,26,15,22,06,29,03,14,09,18,21,,1.4,0.8,1.1*3E
$GPGGA,005923.50,4229.6220,N,08325.9871,W,9,11,0.8,273.97,M,-34.70,M,02,0133*50
$GPGST,005923.50,2.15,1.44,0.99,69.9486,1.40,1.06,2.17*52
$GPRMC,005923.50,A,4229.6219987,N,08325.9871228,W,12.171,240.0,231110,0.0,E,D*1C
$GPGSA,M,3,27,26,15,22,06,29,03,14,09,18,21,,1.4,0.8,1.1*3E
$GPGGA,005923.60,4229.6218,N,08325.9875,W,9,11,0.8,273.98,M,-34.70,M,02,0133*53
$GPGST,005923.60,2.15,1.44,0.99,69.9484,1.40,1.06,2.17*53
$GPRMC,005923.60,A,4229.6218431,N,08325.9875227,W,12.107,244.1,231110,0.0,E,D*11
$GPGSA,M,3,27,26,15,22,06,29,03,14,09,18,21,,1.4,0.8,1.1*3E
$GPGGA,005923.70,4229.6217,N,08325.9879,W,9,11,0.8,274.00,M,-34.70,M,02,0133*57
$GPGST,005923.70,2.15,1.44,0.99,69.9434,1.40,1.06,2.17*59
$GPRMC,005923.70,A,4229.6217068,N,08325.9879321,W,12.201,246.3,231110,0.0,E,D*19
$GPGSA,M,3,27,26,15,22,06,29,03,14,09,18,21,,1.4,0.8,1.1*3E
$GPGGA,005923.80,4229.6216,N,08325.9884,W,9,11,0.8,274.02,M,-34.70,M,02,0133*59
$GPGST,005923.80,2.15,1.44,0.99,69.9414,1.40,1.06,2.17*54
$GPRMC,005923.80,A,4229.6215782,N,08325.9883562,W,12.275,248.5,231110,0.0,E,D*18
$GPGSA,M,3,27,26,15,22,06,29,03,14,09,18,21,,1.4,0.8,1.1*3E
$GPGGA,005923.90,4229.6215,N,08325.9888,W,9,11,0.8,274.04,M,-34.70,M,02,0133*51
$GPGST,005923.90,2.15,1.44,0.99,69.9417,1.40,1.06,2.17*56
$GPRMC,005923.90,A,4229.6214586,N,08325.9887857,W,12.518,249.3,231110,0.0,E,D*1A
$GPGSA,M,3,27,26,15,22,06,29,03,14,09,18,21,,1.4,0.8,1.1*3E
$GPGGA,005924.00,4229.6213,N,08325.9892,W,9,11,0.8,274.06,M,-34.70,M,03,0133*51
$GPGST,005924.00,2.15,1.44,0.99,69.9490,1.40,1.06,2.17*57
$GPRMC,005924.00,A,4229.6213421,N,08325.9892333,W,12.801,251.1,231110,0.0,E,D*1C
$GPGSA,M,3,27,26,15,22,06,29,03,14,09,18,21,,1.4,0.8,1.1*3E
$GPGGA,005924.10,4229.6213,N,08325.9897,W,9,11,0.8,274.10,M,-34.70,M,03,0133*52
$GPGST,005924.10,2.15,1.44,0.99,69.9497,1.40,1.06,2.17*51
$GPRMC,005924.10,A,4229.6212539,N,08325.9896924,W,12.858,256.1,231110,0.0,E,D*17
$GPGSA,M,3,27,26,15,22,06,29,03,14,09,18,21,,1.4,0.8,1.1*3E
$GPGGA,005924.20,4229.6212,N,08325.9902,W,9,11,0.8,274.14,M,-34.70,M,03,0133*59
$GPGST,005924.20,2.15,1.44,0.99,70.0003,1.40,1.06,2.17*5A
$GPRMC,005924.20,A,4229.6211843,N,08325.9901588,W,12.778,260.0,231110,0.0,E,D*1B
$GPGSA,M,3,27,26,15,22,06,29,03,14,09,18,21,,1.4,0.8,1.1*3E
$GPGGA,005924.30,4229.6211,N,08325.9906,W,9,11,0.8,274.15,M,-34.70,M,03,0133*5E
$GPGST,005924.30,2.15,1.44,0.99,70.0000,1.40,1.06,2.17*58
$GPRMC,005924.30,A,4229.6211210,N,08325.9906290,W,12.636,261.6,231110,0.0,E,D*13
$GPGSA,M,3,27,26,15,22,06,29,03,14,09,18,21,,1.4,0.8,1.1*3E
$GPGGA,005924.40,4229.6211,N,08325.9911,W,9,11,0.8,274.15,M,-34.70,M,03,0133*5F
$GPGST,005924.40,2.15,1.45,0.99,70.0954,1.40,1.06,2.17*56
$GPRMC,005924.40,A,4229.6210647,N,08325.9911002,W,12.702,261.8,231110,0.0,E,D*14
$GPGSA,M,3,27,26,15,22,06,29,03,14,09,18,21,,1.4,0.8,1.1*3E
$GPGGA,005924.50,4229.6210,N,08325.9916,W,9,11,0.8,274.16,M,-34.70,M,03,0133*5B
$GPGST,005924.50,2.16,1.45,0.99,70.0902,1.40,1.06,2.17*57
$GPRMC,005924.50,A,4229.6210215,N,08325.9915802,W,12.811,264.3,231110,0.0,E,D*19
$GPGSA,M,3,27,26,15,22,06,29,03,14,09,18,21,,1.4,0.8,1.1*3E
$GPGGA,005924.60,4229.6210,N,08325.9921,W,9,11,0.8,274.15,M,-34.70,M,03,0133*5F
$GPGST,005924.60,2.15,1.45,0.99,70.0691,1.40,1.06,2.17*52
$GPRMC,005924.60,A,4229.6209882,N,08325.9920605,W,12.909,266.2,231110,0.0,E,D*12
$GPGSA,M,3,27,26,15,22,06,29,03,14,09,18,21,,1.4,0.8,1.1*3E
$GPGGA,005924.70,4229.6210,N,08325.9925,W,9,11,0.8,274.14,M,-34.70,M,03,0133*5B
$GPGST,005924.70,2.15,1.45,0.99,70.0697,1.40,1.06,2.17*55
$GPRMC,005924.70,A,4229.6209713,N,08325.9925497,W,13.055,268.0,231110,0.0,E,D*15
$GPGSA,M,3,27,26,15,22,06,29,03,14,09,18,21,,1.4,0.8,1.1*3E
$GPGGA,005924.80,4229.6210,N,08325.9930,W,9,11,0.8,274.14,M,-34.70,M,03,0133*50
$GPGST,005924.80,2.15,1.44,0.99,70.0870,1.40,1.06,2.17*5C
$GPRMC,005924.80,A,4229.6209692,N,08325.9930418,W,13.166,271.0,231110,0.0,E,D*18
$GPGSA,M,3,27,26,15,22,06,03,14,09,18,21,,,1.5,0.9,1.2*36
$GPGGA,005924.90,4229.6209,N,08325.9935,W,9,10,0.9,274.05,M,-34.70,M,03,0133*5C
$GPGST,005924.90,2.05,1.63,1.00,74.7237,1.60,1.06,2.35*50
$GPRMC,005924.90,A,4229.6209438,N,08325.9935450,W,13.199,273.8,231110,0.0,E,D*18
$GPGSA,M,3,27,26,15,22,06,03,14,09,18,21,,,1.5,0.9,1.2*36
$GPGGA,005925.00,4229.6210,N,08325.9940,W,9,10,0.9,274.03,M,-34.70,M,04,0133*5F
$GPGST,005925.00,2.05,1.63,1.00,74.7273,1.59,1.06,2.35*52
$GPRMC,005925.00,A,4229.6209695,N,08325.9940377,W,13.163,275.1,231110,0.0,E,D*1F
$GPGSA,M,3,27,26,15,22,06,03,14,09,18,21,,,1.5,0.9,1.2*36
$GPGGA,005925.10,4229.6210,N,08325.9945,W,9,10,0.9,274.04,M,-34.70,M,04,0133*5C
$GPGST,005925.10,2.05,1.63,1.00,74.7288,1.59,1.06,2.35*57
$GPRMC,005925.10,A,4229.6210207,N,08325.9945327,W,13.387,278.3,231110,0.0,E,D*1E
$GPGSA,M,3,27,26,15,22,06,03,14,09,18,21,,,1.5,0.9,1.2*36
$GPGGA,005925.20,4229.6211,N,08325.9950,W,9,10,0.9,274.02,M,-34.70,M,04,0133*5C
$GPGST,005925.20,2.05,1.63,1.00,74.7271,1.60,1.06,2.35*58
$GPRMC,005925.20,A,4229.6210788,N,08325.9950217,W,13.267,280.6,231110,0.0,E,D*14
$GPGSA,M,3,27,26,15,22,06,03,14,09,18,21,,,1.5,0.9,1.2*36
$GPGGA,005925.30,4229.6212,N,08325.9955,W,9,10,0.9,274.07,M,-34.70,M,04,0133*5E
$GPGST,005925.30,2.05,1.63,1.00,74.7284,1.60,1.06,2.35*53
$GPRMC,005925.30,A,4229.6211826,N,08325.9955026,W,13.426,283.5,231110,0.0,E,D*19
$GPGSA,M,3,27,26,15,22,06,03,14,09,18,21,,,1.5,0.9,1.2*36
$GPGGA,005925.40,4229.6213,N,08325.9960,W,9,10,0.9,274.06,M,-34.70,M,04,0133*5F
$GPGST,005925.40,2.05,1.63,1.00,74.7306,1.60,1.06,2.35*5F
$GPRMC,005925.40,A,4229.6212778,N,08325.9959898,W,13.441,286.3,231110,0.0,E,D*1A
$GPGSA,M,3,27,26,15,22,06,03,14,09,18,21,,,1.5,0.9,1.2*36
$GPGGA,005925.50,4229.6214,N,08325.9965,W,9,10,0.9,274.08,M,-34.70,M,04,0133*52
$GPGST,005925.50,2.05,1.63,1.00,74.7154,1.60,1.06,2.36*58
$GPRMC,005925.50,A,4229.6213891,N,08325.9964677,W,13.354,288.5,231110,0.0,E,D*18
$GPGSA,M,3,27,26,15,22,06,03,14,09,18,21,,,1.5,0.9,1.2*36
$GPGGA,005925.60,4229.6215,N,08325.9969,W,9,10,0.9,274.07,M,-34.70,M,04,0133*53
$GPGST,005925.60,2.05,1.63,1.00,74.6689,1.60,1.06,2.36*5D
$GPRMC,005925.60,A,4229.6215186,N,08325.9969353,W,13.276,291.7,231110,0.0,E,D*17
$GPGSA,M,3,27,26,15,22,06,03,09,18,21,,,,2.0,1.2,1.6*3B
$GPGGA,005925.70,4229.6217,N,08325.9974,W,9,09,1.2,274.26,M,-34.70,M,04,0133*5D
$GPGST,005925.70,1.90,1.96,1.00,73.6833,1.90,1.11,2.67*5C
$GPRMC,005925.70,A,4229.6217455,N,08325.9973608,W,13.347,293.3,231110,0.0,E,D*1A
$GPGSA,M,3,27,26,15,22,06,03,14,09,18,21,,,1.5,0.9,1.2*36
$GPGGA,005925.80,4229.6218,N,08325.9979,W,9,10,0.9,274.04,M,-34.70,M,04,0133*52
$GPGST,005925.80,2.07,1.65,1.00,74.6061,1.61,1.06,2.37*57
$GPRMC,005925.80,A,4229.6218061,N,08325.9978572,W,13.324,295.7,231110,0.0,E,D*1B
$GPGSA,M,3,27,26,15,22,06,03,14,09,18,21,,,1.5,0.9,1.2*36
$GPGGA,005925.90,4229.6220,N,08325.9983,W,9,10,0.9,274.03,M,-34.70,M,04,0133*5A
$GPGST,005925.90,2.07,1.65,1.00,74.6067,1.61,1.06,2.37*50
$GPRMC,005925.90,A,4229.6219709,N,08325.9983055,W,13.298,297.6,231110,0.0,E,D*13
$GPGSA,M,3,27,26,15,22,06,03,14,09,18,21,,,1.5,0.9,1.2*36
$GPGGA,005926.00,4229.6221,N,08325.9987,W,9,10,0.9,274.02,M,-34.70,M,05,0133*55
$GPGST,005926.00,2.06,1.64,1.00,74.6583,1.60,1.06,2.36*55
$GPRMC,005926.00,A,4229.6221487,N,08325.9987432,W,13.341,300.3,231110,0.0,E,D*19
$GPGSA,M,3,27,26,15,22,06,29,03,14,09,18,21,,1.4,0.8,1.1*3E
$GPGGA,005926.10,4229.6223,N,08325.9992,W,9,11,0.8,274.00,M,-34.70,M,05,0133*50
$GPGST,005926.10,4.27,1.62,1.00,74.3850,1.59,1.06,2.34*59
$GPRMC,005926.10,A,4229.6223393,N,08325.9991643,W,13.247,304.0,231110,0.0,E,D*1B
$GPGSA,M,3,27,26,15,22,06,29,03,14,09,18,21,,1.4,0.8,1.1*3E
$GPGGA,005926.20,4229.6225,N,08325.9996,W,9,11,0.8,274.00,M,-34.70,M,05,0133*51
$GPGST,005926.20,4.27,1.62,1.00,74.4022,1.58,1.06,2.34*51
$GPRMC,005926.20,A,4229.6225480,N,08325.9995717,W,13.243,306.4,231110,0.0,E,D*1D
$GPGSA,M,3,27,26,15,22,06,29,03,14,09,18,21,,1.4,0.8,1.1*3E
$GPGGA,005926.30,4229.6228,N,08326.0000,W,9,11,0.8,273.99,M,-34.70,M,05,0133*56
$GPGST,005926.30,3.02,1.59,1.00,73.9332,1.56,1.06,2.32*58
$GPRMC,005926.30,A,4229.6227653,N,08325.9999715,W,13.182,307.5,231110,0.0,E,D*12
$GPGSA,M,3,27,26,15,22,06,29,03,14,09,18,21,,1.4,0.8,1.1*3E
$GPGGA,005926.40,4229.6230,N,08326.0004,W,9,11,0.8,274.00,M,-34.70,M,05,0133*5B
$GPGST,005926.40,3.02,1.59,1.00,73.9435,1.55,1.06,2.31*5F
$GPRMC,005926.40,A,4229.6230056,N,08326.0003543,W,13.369,311.3,231110,0.0,E,D*17
$GPGSA,M,3,27,26,15,22,06,29,03,14,09,18,21,,1.4,0.8,1.1*3E
$GPGGA,005926.50,4229.6233,N,08326.0007,W,9,11,0.8,274.09,M,-34.70,M,05,0133*53
$GPGST,005926.50,2.18,1.46,0.99,70.6575,1.42,1.06,2.19*5E
$GPRMC,005926.50,A,4229.6232958,N,08326.0007119,W,13.309,314.8,231110,0.0,E,D*14
$GPGSA,M,3,27,26,15,22,06,29,03,09,18,21,,,1.5,0.9,1.2*38
$GPGGA,005926.60,4229.6236,N,08326.0010,W,9,10,0.9,274.22,M,-34.70,M,05,0133*5A
$GPGST,005926.60,2.06,1.60,1.00,69.5773,1.54,1.09,2.31*5A
$GPRMC,005926.60,A,4229.6236147,N,08326.0010200,W,13.162,317.4,231110,0.0,E,D*18
$GPGSA,M,3,27,26,15,22,06,29,03,14,09,18,21,,1.4,0.8,1.1*3E
$GPGGA,005926.70,4229.6237,N,08326.0014,W,9,11,0.8,273.79,M,-34.70,M,05,0133*57
$GPGST,005926.70,2.19,1.47,0.99,70.6143,1.42,1.06,2.19*5D
$GPRMC,005926.70,A,4229.6236908,N,08326.0014073,W,13.192,319.5,231110,0.0,E,D*18
$GPGSA,M,3,27,26,15,22,06,29,03,14,09,18,21,,1.4,0.8,1.1*3E
$GPGGA,005926.80,4229.6240,N,08326.0017,W,9,11,0.8,273.79,M,-34.70,M,05,0133*5B
$GPGST,005926.80,2.19,1.47,0.99,70.6695,1.43,1.06,2.20*55
$GPRMC,005926.80,A,4229.6239688,N,08326.0017236,W,13.027,320.9,231110,0.0,E,D*16
$GPGSA,M,3,27,26,15,22,06,29,03,14,09,18,21,,1.4,0.8,1.1*3E
$GPGGA,005926.90,4229.6242,N,08326.0020,W,9,11,0.8,273.67,M,-34.70,M,05,0133*53
$GPGST,005926.90,2.19,1.46,0.99,70.7179,1.42,1.06,2.19*5A
$GPRMC,005926.90,A,4229.6241982,N,08326.0020355,W,13.216,323.2,231110,0.0,E,D*15
$GPGSA,M,3,27,26,15,22,06,29,03,14,09,18,21,,1.4,0.8,1.1*3E
$GPGGA,005927.00,4229.6245,N,08326.0023,W,9,11,0.8,273.69,M,-34.70,M,06,0133*52
$GPGST,005927.00,2.19,1.47,0.99,70.8458,1.43,1.06,2.19*5B
$GPRMC,005927.00,A,4229.6245118,N,08326.0023196,W,13.472,326.7,231110,0.0,E,D*18
$GPGSA,M,3,27,26,15,22,06,29,03,14,09,18,21,,1.4,0.8,1.1*3E
$GPGGA,005927.10,4229.6249,N,08326.0026,W,9,11,0.8,273.80,M,-34.70,M,06,0133*5D
$GPGST,005927.10,2.19,1.47,0.99,70.8430,1.43,1.06,2.19*54
$GPRMC,005927.10,A,4229.6248705,N,08326.0025766,W,13.414,329.2,231110,0.0,E,D*1B
$GPGSA,M,3,27,26,15,22,06,29,03,14,09,18,21,,1.4,0.8,1.1*3E
$GPGGA,005927.20,4229.6252,N,08326.0028,W,9,11,0.8,273.82,M,-34.70,M,06,0133*58
$GPGST,005927.20,2.19,1.47,0.99,70.8566,1.42,1.06,2.19*54
$GPRMC,005927.20,A,4229.6251877,N,08326.0028256,W,13.142,331.1,231110,0.0,E,D*1D
$GPGSA,M,3,27,26,15,22,06,29,03,14,09,18,21,,1.4,0.8,1.1*3E
$GPGGA,005927.30,4229.6256,N,08326.0030,W,9,11,0.8,274.01,M,-34.70,M,06,0133*58
$GPGST,005927.30,2.19,1.47,1.00,70.9165,1.43,1.06,2.20*59
$GPRMC,005927.30,A,4229.6255941,N,08326.0030450,W,13.107,332.9,231110,0.0,E,D*1F
$GPGSA,M,3,27,26,15,22,06,29,03,14,09,18,21,,1.4,0.8,1.1*3E
$GPGGA,005927.40,4229.6259,N,08326.0033,W,9,11,0.8,274.01,M,-34.70,M,06,0133*53
$GPGST,005927.40,2.19,1.47,1.00,70.9185,1.43,1.06,2.20*50
$GPRMC,005927.40,A,4229.6259217,N,08326.0032598,W,13.273,335.1,231110,0.0,E,D*14
$GPGSA,M,3,27,26,15,22,06,29,03,14,09,18,21,,1.4,0.8,1.1*3E
$GPGGA,005927.50,4229.6263,N,08326.0035,W,9,11,0.8,274.06,M,-34.70,M,02,0133*5E
$GPGST,005927.50,2.21,1.47,1.00,71.1277,1.43,1.06,2.20*5D
$GPRMC,005927.50,A,4229.6262841,N,08326.0034604,W,13.582,337.5,231110,0.0,E,D*1B
$GPGSA,M,3,27,26,15,22,06,29,03,14,09,18,21,,1.4,0.8,1.1*3E
$GPGGA,005927.60,4229.6266,N,08326.0036,W,9,11,0.8,274.08,M,-34.70,M,02,0133*55
$GPGST,005927.60,2.21,1.48,1.00,71.1067,1.43,1.06,2.20*52
$GPRMC,005927.60,A,4229.6266360,N,08326.0036410,W,13.688,340.2,231110,0.0,E,D*1F
$GPGSA,M,3,27,26,15,22,06,29,03,14,09,18,21,,1.4,0.8,1.1*3E
$GPGGA,005927.70,4229.6269,N,08326.0038,W,9,11,0.8,273.84,M,-34.70,M,02,0133*56
$GPGST,005927.70,2.21,1.47,1.00,71.0971,1.43,1.06,2.20*53
$GPRMC,005927.70,A,4229.6268751,N,08326.0038376,W,13.548,341.0,231110,0.0,E,D*13
$GPGSA,M,3,27,26,15,22,06,29,03,14,09,18,21,,1.4,0.8,1.1*3E
$GPGGA,005927.80,4229.6272,N,08326.0040,W,9,11,0.8,273.85,M,-34.70,M,02,0133*5D
$GPGST,005927.80,2.21,1.47,1.00,71.0985,1.43,1.06,2.20*57
$GPRMC,005927.80,A,4229.6272387,N,08326.0039893,W,13.717,344.0,231110,0.0,E,D*14
$GPGSA,M,3,27,26,15,22,06,29,03,14,09,18,21,,1.4,0.8,1.1*3E
$GPGGA,005927.90,4229.6276,N,08326.0041,W,9,11,0.8,273.95,M,-34.70,M,02,0133*58
$GPGST,005927.90,2.20,1.47,1.00,71.1111,1.43,1.06,2.20*53
$GPRMC,005927.90,A,4229.6276374,N,08326.0041188,W,13.570,346.1,231110,0.0,E,D*11
$GPGSA,M,3,27,26,15,22,06,29,03,14,09,18,21,,1.4,0.8,1.1*3E
$GPGGA,005928.00,4229.6280,N,08326.0042,W,9,11,0.8,273.95,M,-34.70,M,03,0133*55
$GPGST,005928.00,2.18,1.46,1.00,70.8082,1.42,1.06,2.19*57
$GPRMC,005928.00,A,4229.6280044,N,08326.0042219,W,13.609,349.4,231110,0.0,E,D*11
$GPGSA,M,3,27,26,15,22,06,29,14,09,18,21,,,1.5,0.9,1.2*3E
$GPGGA,005928.10,4229.6286,N,08326.0044,W,9,10,0.9,273.55,M,-34.70,M,03,0133*58
$GPGST,005928.10,2.14,1.51,1.04,76.1897,1.49,1.07,2.34*5E
$GPRMC,005928.10,A,4229.6285548,N,08326.0043771,W,13.636,351.1,231110,0.0,E,D*16
$GPGSA,M,3,27,26,15,22,06,29,14,09,18,21,,,1.5,0.9,1.2*3E
$GPGGA,005928.20,4229.6289,N,08326.0045,W,9,10,0.9,273.56,M,-34.70,M,03,0133*56
$GPGST,005928.20,2.13,1.51,1.04,76.1720,1.49,1.07,2.33*5E
$GPRMC,005928.20,A,4229.6289343,N,08326.0044558,W,13.856,352.0,231110,0.0,E,D*10
$GPGSA,M,3,27,26,15,22,06,29,14,09,18,21,,,1.5,0.9,1.2*3E
$GPGGA,005928.30,4229.6293,N,08326.0045,W,9,10,0.9,273.52,M,-34.70,M,03,0133*58
$GPGST,005928.30,2.13,1.51,1.04,76.1728,1.49,1.07,2.33*57
$GPRMC,005928.30,A,4229.6293048,N,08326.0045189,W,14.181,354.6,231110,0.0,E,D*1F
$GPGSA,M,3,27,26,15,22,06,29,09,18,21,,,,1.6,0.9,1.3*39
$GPGGA,005928.40,4229.6297,N,08326.0046,W,9,09,0.9,273.54,M,-34.70,M,03,0133*56
$GPGST,005928.40,2.00,1.62,1.04,73.0074,1.58,1.10,2.48*52
$GPRMC,005928.40,A,4229.6296974,N,08326.0045545,W,14.082,356.8,231110,0.0,E,D*11
$GPGSA,M,3,27,26,15,22,06,29,09,18,21,,,,1.6,0.9,1.3*39
$GPGGA,005928.50,4229.6301,N,08326.0046,W,9,09,0.9,273.64,M,-34.70,M,02,0133*5B
$GPGST,005928.50,1.99,1.62,1.04,73.0122,1.58,1.10,2.48*52
$GPRMC,005928.50,A,4229.6301254,N,08326.0045575,W,13.997,358.9,231110,0.0,E,D*10
$GPGSA,M,3,27,26,15,22,06,29,09,18,21,,,,1.6,0.9,1.3*39
$GPGGA,005928.60,4229.6305,N,08326.0046,W,9,09,0.9,273.62,M,-34.70,M,02,0133*5A
$GPGST,005928.60,1.99,1.62,1.04,73.0132,1.58,1.10,2.48*50
$GPRMC,005928.60,A,4229.6305094,N,08326.0045642,W,13.904,0.5,231110,0.0,E,D*16
$GPGSA,M,3,27,26,15,22,06,29,09,18,21,,,,1.6,0.9,1.3*39
$GPGGA,005928.70,4229.6309,N,08326.0045,W,9,09,0.9,273.69,M,-34.70,M,02,0133*5F
$GPGST,005928.70,1.99,1.61,1.04,72.9860,1.57,1.10,2.48*5B
$GPRMC,005928.70,A,4229.6309245,N,08326.0045363,W,13.990,3.2,231110,0.0,E,D*1A
$GPGSA,M,3,27,26,15,22,06,29,09,18,21,,,,1.6,0.9,1.3*39
$GPGGA,005928.80,4229.6313,N,08326.0045,W,9,09,0.9,273.68,M,-34.70,M,02,0133*5A
$GPGST,005928.80,1.99,1.61,1.04,72.9865,1.57,1.10,2.48*51
$GPRMC,005928.80,A,4229.6313104,N,08326.0045040,W,13.992,4.5,231110,0.0,E,D*18
$GPGSA,M,3,27,26,15,22,06,29,09,18,21,,,,1.6,0.9,1.3*39
$GPGGA,005928.90,4229.6317,N,08326.0044,W,9,09,0.9,273.77,M,-34.70,M,02,0133*50
$GPGST,005928.90,1.98,1.61,1.04,72.9622,1.57,1.10,2.47*53
$GPRMC,005928.90,A,4229.6317314,N,08326.0044388,W,13.964,6.5,231110,0.0,E,D*13
$GPGSA,M,3,27,26,15,22,06,29,09,18,21,,,,1.6,0.9,1.3*39
$GPGGA,005929.00,4229.6321,N,08326.0044,W,9,09,0.9,273.77,M,-34.70,M,03,0133*5C
$GPGST,005929.00,1.98,1.61,1.04,72.9629,1.57,1.10,2.47*50
$GPRMC,005929.00,A,4229.6321167,N,08326.0043658,W,14.025,8.7,231110,0.0,E,D*10
$GPGSA,M,3,27,26,15,22,06,29,09,18,21,,,,1.6,0.9,1.3*39
$GPGGA,005929.10,4229.6325,N,08326.0043,W,9,09,0.9,273.79,M,-34.70,M,03,0133*50
$GPGST,005929.10,1.98,1.61,1.04,72.9638,1.57,1.10,2.47*51
$GPRMC,005929.10,A,4229.6325050,N,08326.0042747,W,14.023,10.8,231110,0.0,E,D*2E
$GPGSA,M,3,27,26,15,22,06,29,09,18,21,,,,1.6,0.9,1.3*39
$GPGST,005929.20,1.98,1.61,1.04,72.9499,1.57,1.10,2.47*5B
$GPGGA,005929.20,4229.6329,N,08326.0042,W,9,09,0.9,273.79,M,-34.70,M,03,0133*5E
$GPRMC,005929.20,A,4229.6328851,N,08326.0041684,W,14.025,12.5,231110,0.0,E,D*2D
$GPGSA,M,3,27,26,15,22,06,29,09,18,21,,,,1.6,0.9,1.3*39
$GPGGA,005929.30,4229.6332,N,08326.0040,W,9,09,0.9,273.73,M,-34.70,M,03,0133*5D
$GPGST,005929.30,1.98,1.61,1.04,72.9513,1.57,1.10,2.47*59
$GPRMC,005929.30,A,4229.6332430,N,08326.0040465,W,14.079,15.0,231110,0.0,E,D*2B
$GPGSA,M,3,27,26,15,22,06,29,09,18,21,,,,1.6,0.9,1.3*39
$GPGGA,005929.40,4229.6336,N,08326.0039,W,9,09,0.9,273.72,M,-34.70,M,03,0133*51
$GPGST,005929.40,1.98,1.61,1.04,72.9445,1.57,1.10,2.47*5C
$GPRMC,005929.40,A,4229.6336171,N,08326.0039016,W,14.061,17.1,231110,0.0,E,D*2C
$GPGSA,M,3,27,26,15,22,06,29,09,18,21,,,,1.6,0.9,1.3*39
$GPGGA,005929.50,4229.6339,N,08326.0038,W,9,09,0.9,273.62,M,-34.70,M,02,0133*5E
$GPGST,005929.50,1.98,1.61,1.04,72.9408,1.57,1.10,2.47*54
$GPRMC,005929.50,A,4229.6339478,N,08326.0037507,W,13.980,19.2,231110,0.0,E,D*29
$GPGSA,M,3,27,26,15,22,06,29,09,18,21,,,,1.6,0.9,1.3*39
$GPGGA,005929.60,4229.6343,N,08326.0036,W,9,09,0.9,273.61,M,-34.70,M,02,0133*5D
$GPGST,005929.60,1.98,1.61,1.04,72.9417,1.57,1.10,2.47*59
$GPRMC,005929.60,A,4229.6343118,N,08326.0035665,W,14.067,21.7,231110,0.0,E,D*28
$GPGSA,M,3,27,26,15,22,06,29,09,18,21,,,,1.6,0.9,1.3*39
$GPGGA,005929.70,4229.6347,N,08326.0034,W,9,09,0.9,273.64,M,-34.70,M,02,0133*5F
$GPGST,005929.70,1.98,1.61,1.04,72.9302,1.57,1.10,2.47*5B
$GPRMC,005929.70,A,4229.6346812,N,08326.0033635,W,14.057,23.6,231110,0.0,E,D*2C
$GPGSA,M,3,27,26,15,22,06,29,09,18,21,,,,1.6,0.9,1.3*39
$GPGGA,005929.80,4229.6350,N,08326.0031,W,9,09,0.9,273.64,M,-34.70,M,02,0133*53
$GPGST,005929.80,1.98,1.61,1.04,72.9310,1.57,1.10,2.47*57
$GPRMC,005929.80,A,4229.6350387,N,08326.0031465,W,14.091,25.4,231110,0.0,E,D*28
$GPGSA,M,3,27,26,15,22,06,29,09,18,21,,,,1.6,0.9,1.3*39
$GPGGA,005929.90,4229.6354,N,08326.0029,W,9,09,0.9,273.64,M,-34.70,M,02,0133*5F
$GPGST,005929.90,1.98,1.61,1.04,72.9363,1.57,1.10,2.47*52
$GPRMC,005929.90,A,4229.6353880,N,08326.0029101,W,14.057,27.8,231110,0.0,E,D*2C
$GPGSA,M,3,27,26,15,22,06,29,09,18,21,,,,1.6,0.9,1.3*39
$GPGGA,005930.00,4229.6357,N,08326.0027,W,9,09,0.9,273.65,M,-34.70,M,03,0133*53
$GPGST,005930.00,1.98,1.61,1.04,72.9376,1.57,1.10,2.47*57
$GPRMC,005930.00,A,4229.6357343,N,08326.0026554,W,14.188,29.6,231110,0.0,E,D*25
$GPGSA,M,3,27,26,15,22,06,29,09,18,21,,,,1.6,0.9,1.3*39
$GPGGA,005930.10,4229.6361,N,08326.0024,W,9,09,0.9,273.62,M,-34.70,M,03,0133*53
$GPGST,005930.10,1.98,1.61,1.04,72.9409,1.57,1.10,2.47*59
$GPRMC,005930.10,A,4229.6360665,N,08326.0023918,W,14.109,31.1,231110,0.0,E,D*27
$GPGSA,M,3,27,26,15,22,06,29,09,18,21,,,,1.6,0.9,1.3*39
$GPGGA,005930.20,4229.6364,N,08326.0021,W,9,09,0.9,273.62,M,-34.70,M,03,0133*50
$GPGST,005930.20,1.98,1.61,1.04,72.9406,1.57,1.10,2.47*55
$GPRMC,005930.20,A,4229.6363943,N,08326.0021143,W,13.917,32.9,231110,0.0,E,D*23
$GPGSA,M,3,27,26,15,22,06,29,09,18,21,,,,1.6,0.9,1.3*39
$GPGGA,005930.30,4229.6367,N,08326.0018,W,9,09,0.9,273.50,M,-34.70,M,03,0133*59
$GPGST,005930.30,1.98,1.61,1.04,72.9410,1.57,1.10,2.47*53
$GPRMC,005930.30,A,4229.6366695,N,08326.0018334,W,13.924,35.6,231110,0.0,E,D*23
$GPGSA,M,3,27,26,15,22,06,29,09,18,21,,,,1.6,0.9,1.3*39
$GPGGA,005930.40,4229.6370,N,08326.0015,W,9,09,0.9,273.49,M,-34.70,M,03,0133*5D
$GPGST,005930.40,1.98,1.61,1.04,72.9370,1.57,1.10,2.47*55
$GPRMC,005930.40,A,4229.6369814,N,08326.0015200,W,13.994,37.8,231110,0.0,E,D*20
$GPGSA,M,3,27,26,15,22,06,29,09,18,21,,,,1.6,0.9,1.3*39
$GPGGA,005930.50,4229.6373,N,08326.0012,W,9,09,0.9,273.49,M,-34.70,M,03,0133*58
$GPGST,005930.50,1.98,1.61,1.04,72.9380,1.57,1.10,2.47*5B
$GPRMC,005930.50,A,4229.6372865,N,08326.0011926,W,13.895,39.7,231110,0.0,E,D*27
$GPGSA,M,3,27,26,15,22,06,29,09,18,21,,,,1.6,0.9,1.3*39
$GPGGA,005930.60,4229.6376,N,08326.0009,W,9,09,0.9,273.49,M,-34.70,M,03,0133*54
$GPGST,005930.60,1.98,1.61,1.04,72.9441,1.57,1.10,2.47*52
$GPRMC,005930.60,A,4229.6375802,N,08326.0008531,W,13.915,41.8,231110,0.0,E,D*29
$GPGSA,M,3,27,26,15,22,06,29,09,18,21,,,,1.6,0.9,1.3*39
$GPGGA,005930.70,4229.6378,N,08326.0005,W,9,09,0.9,273.34,M,-34.70,M,03,0133*5D
$GPGST,005930.70,1.98,1.61,1.04,72.9450,1.57,1.10,2.47*53
$GPRMC,005930.70,A,4229.6378084,N,08326.0005169,W,13.965,43.6,231110,0.0,E,D*2C
$GPGSA,M,3,27,26,15,22,06,29,09,18,21,,,,1.6,0.9,1.3*39
$GPGGA,005930.80,4229.6381,N,08326.0001,W,9,09,0.9,273.34,M,-34.70,M,03,0133*50
$GPGST,005930.80,1.98,1.61,1.04,72.9458,1.57,1.10,2.47*54
$GPRMC,005930.80,A,4229.6380798,N,08326.0001456,W,13.869,46.6,231110,0.0,E,D*2B
$GPGSA,M,3,27,26,15,22,06,29,09,18,21,,,,1.6,0.9,1.3*39
$GPGGA,005930.90,4229.6384,N,08325.9998,W,9,09,0.9,273.38,M,-34.70,M,03,0133*5B
$GPGST,005930.90,1.98,1.61,1.04,72.9685,1.57,1.10,2.47*57
$GPRMC,005930.90,A,4229.6383576,N,08325.9997517,W,13.992,49.2,231110,0.0,E,D*2D
$GPGSA,M,3,27,26,15,22,06,29,09,18,21,,,,1.6,0.9,1.3*39
$GPGGA,005931.00,4229.6386,N,08325.9993,W,9,09,0.9,273.38,M,-34.70,M,04,0133*5D
$GPGST,005931.00,1.98,1.61,1.04,72.9690,1.57,1.10,2.47*5B
$GPRMC,005931.00,A,4229.6386056,N,08325.9993484,W,13.956,51.7,231110,0.0,E,D*2C
$GPGSA,M,3,27,26,15,22,06,29,03,09,18,21,,,1.5,0.9,1.2*38
$GPGGA,005931.10,4229.6389,N,08325.9989,W,9,10,0.9,273.41,M,-34.70,M,04,0133*5E
$GPGST,005931.10,4.38,1.61,1.04,72.7579,1.57,1.10,2.46*5E
$GPRMC,005931.10,A,4229.6388536,N,08325.9989317,W,13.872,53.2,231110,0.0,E,D*26
$GPGSA,M,3,27,26,15,22,06,29,03,09,18,21,,,1.5,0.9,1.2*38
$GPGGA,005931.20,4229.6391,N,08325.9985,W,9,10,0.9,273.40,M,-34.70,M,04,0133*59
$GPGST,005931.20,4.38,1.61,1.04,72.7590,1.57,1.10,2.46*5A
$GPRMC,005931.20,A,4229.6390746,N,08325.9985156,W,13.629,55.2,231110,0.0,E,D*24
$GPGSA,M,3,27,26,15,22,06,29,03,09,18,21,,,1.5,0.9,1.2*38
$GPGST,005931.30,4.38,1.61,1.04,72.7861,1.57,1.10,2.47*59
$GPGGA,005931.30,4229.6393,N,08325.9981,W,9,10,0.9,273.39,M,-34.70,M,04,0133*50
$GPRMC,005931.30,A,4229.6392843,N,08325.9980917,W,13.798,56.7,231110,0.0,E,D*28
$GPGSA,M,3,27,26,15,22,06,29,03,09,18,21,,,1.5,0.9,1.2*38
$GPGST,005931.40,4.38,1.61,1.04,72.7855,1.57,1.10,2.47*59
$GPGGA,005931.40,4229.6395,N,08325.9976,W,9,10,0.9,273.38,M,-34.70,M,04,0133*58
$GPRMC,005931.40,A,4229.6394859,N,08325.9976476,W,13.817,60.2,231110,0.0,E,D*29
$GPGSA,M,3,27,26,15,22,06,29,03,09,18,21,,,1.5,0.9,1.2*38
$GPGGA,005931.50,4229.6397,N,08325.9972,W,9,10,0.9,273.51,M,-34.70,M,04,0133*50
$GPGST,005931.50,4.38,1.61,1.04,72.7860,1.57,1.10,2.47*5E
$GPRMC,005931.50,A,4229.6397143,N,08325.9971787,W,13.682,63.4,231110,0.0,E,D*24
$GPGSA,M,3,27,26,15,22,06,29,03,09,18,21,,,1.5,0.9,1.2*38
$GPGGA,005931.60,4229.6399,N,08325.9967,W,9,10,0.9,273.47,M,-34.70,M,04,0133*5E
$GPGST,005931.60,2.42,1.60,1.03,71.6938,1.56,1.10,2.41*59
$GPRMC,005931.60,A,4229.6398860,N,08325.9967237,W,13.640,65.2,231110,0.0,E,D*27
$GPGSA,M,3,27,26,15,22,06,29,03,09,18,21,,,1.5,0.9,1.2*38
$GPGGA,005931.70,4229.6401,N,08325.9962,W,9,10,0.9,273.64,M,-34.70,M,04,0133*5D
$GPGST,005931.70,2.42,1.60,1.03,71.6951,1.56,1.10,2.41*57
$GPRMC,005931.70,A,4229.6401097,N,08325.9962326,W,13.682,67.6,231110,0.0,E,D*2D
$GPGSA,M,3,27,26,15,22,06,29,03,09,18,21,,,1.5,0.9,1.2*38
$GPGGA,005931.80,4229.6402,N,08325.9957,W,9,10,0.9,273.78,M,-34.70,M,04,0133*5A
$GPGST,005931.80,2.08,1.59,1.00,69.7809,1.53,1.09,2.32*52
$GPRMC,005931.80,A,4229.6402210,N,08325.9957334,W,13.730,69.5,231110,0.0,E,D*2C
$GPGSA,M,3,27,26,15,22,06,29,03,09,18,21,,,1.5,0.9,1.2*38
$GPGGA,005931.90,4229.6404,N,08325.9952,W,9,10,0.9,273.80,M,-34.70,M,04,0133*5F
$GPGST,005931.90,2.08,1.59,1.00,69.7817,1.53,1.09,2.32*5C
$GPRMC,005931.90,A,4229.6403536,N,08325.9952428,W,13.751,72.3,231110,0.0,E,D*2B
$GPGSA,M,3,27,26,15,22,06,29,03,09,18,21,,,1.5,0.9,1.2*38
$GPGGA,005932.00,4229.6405,N,08325.9948,W,9,10,0.9,273.79,M,-34.70,M,05,0133*58
$GPGST,005932.00,2.08,1.59,1.00,69.7822,1.53,1.09,2.32*50
$GPRMC,005932.00,A,4229.6404596,N,08325.9947516,W,13.637,75.2,231110,0.0,E,D*23
$GPGSA,M,3,27,26,15,22,06,29,03,09,18,21,,,1.5,0.9,1.2*38
$GPGGA,005932.10,4229.6405,N,08325.9943,W,9,10,0.9,273.69,M,-34.70,M,05,0133*53
$GPGST,005932.10,2.08,1.59,1.00,69.8591,1.53,1.09,2.32*5B
$GPRMC,005932.10,A,4229.6404996,N,08325.9942741,W,13.399,78.2,231110,0.0,E,D*27
$GPGSA,M,3,27,26,15,22,06,29,03,09,18,21,,,1.5,0.9,1.2*38
$GPGGA,005932.20,4229.6406,N,08325.9938,W,9,10,0.9,273.77,M,-34.70,M,05,0133*50
$GPGST,005932.20,2.08,1.59,1.00,69.8595,1.53,1.09,2.32*5C
$GPRMC,005932.20,A,4229.6405524,N,08325.9937746,W,13.158,80.3,231110,0.0,E,D*2C
$GPGSA,M,3,27,26,15,22,06,29,03,09,18,21,,,1.5,0.9,1.2*38
$GPGGA,005932.30,4229.6406,N,08325.9933,W,9,10,0.9,273.69,M,-34.70,M,05,0133*55
$GPGST,005932.30,2.08,1.58,1.00,69.7678,1.53,1.09,2.32*53
$GPRMC,005932.30,A,4229.6405716,N,08325.9932993,W,13.042,82.9,231110,0.0,E,D*2F
$GPGSA,M,3,27,26,15,22,06,29,03,09,18,21,,,1.5,0.9,1.2*38
$GPGGA,005932.40,4229.6406,N,08325.9928,W,9,10,0.9,273.73,M,-34.70,M,05,0133*53
$GPGST,005932.40,2.08,1.58,1.00,69.7686,1.53,1.09,2.32*55
$GPRMC,005932.40,A,4229.6405981,N,08325.9928069,W,12.968,85.6,231110,0.0,E,D*27
$GPGSA,M,3,27,26,15,22,06,29,03,09,18,21,,,1.5,0.9,1.2*38
$GPGGA,005932.50,4229.6406,N,08325.9923,W,9,10,0.9,273.70,M,-34.70,M,05,0133*5A
$GPGST,005932.50,2.09,1.59,1.00,69.9494,1.54,1.09,2.33*5D
$GPRMC,005932.50,A,4229.6406089,N,08325.9923213,W,13.117,86.9,231110,0.0,E,D*2D
$GPGSA,M,3,27,26,15,22,06,29,03,09,18,21,,,1.5,0.9,1.2*38
$GPGGA,005932.60,4229.6406,N,08325.9918,W,9,10,0.9,273.61,M,-34.70,M,05,0133*51
$GPGST,005932.60,2.09,1.59,1.00,69.9507,1.54,1.09,2.33*55
$GPRMC,005932.60,A,4229.6406344,N,08325.9918474,W,13.020,90.3,231110,0.0,E,D*2B
$GPGSA,M,3,27,26,15,22,06,29,03,09,18,21,,,1.5,0.9,1.2*38
$GPGGA,005932.70,4229.6406,N,08325.9914,W,9,10,0.9,273.54,M,-34.70,M,05,0133*5A
$GPGST,005932.70,2.09,1.59,1.00,69.9523,1.54,1.09,2.33*52
$GPRMC,005932.70,A,4229.6405886,N,08325.9913721,W,12.965,93.1,231110,0.0,E,D*2C
$GPGSA,M,3,27,26,15,22,06,29,03,09,18,21,,,1.5,0.9,1.2*38
$GPGGA,005932.80,4229.6406,N,08325.9909,W,9,10,0.9,273.45,M,-34.70,M,05,0133*59
$GPGST,005932.80,2.09,1.59,1.00,69.9366,1.54,1.09,2.32*5B
$GPRMC,005932.80,A,4229.6405819,N,08325.9909063,W,12.787,95.8,231110,0.0,E,D*22
$GPGSA,M,3,27,26,15,22,06,29,03,09,18,21,,,1.5,0.9,1.2*38
$GPGGA,005932.90,4229.6406,N,08325.9904,W,9,10,0.9,273.53,M,-34.70,M,05,0133*52
$GPGST,005932.90,2.09,1.59,1.00,69.9370,1.54,1.09,2.32*5D
$GPRMC,005932.90,A,4229.6405738,N,08325.9904228,W,12.682,97.9,231110,0.0,E,D*28
$GPGSA,M,3,27,26,15,22,06,29,03,09,18,21,,,1.5,0.9,1.2*38
$GPGGA,005933.00,4229.6405,N,08325.9899,W,9,10,0.9,273.82,M,-34.70,M,06,0133*53
$GPGST,005933.00,2.08,1.59,1.00,69.8781,1.53,1.09,2.32*58
$GPRMC,005933.00,A,4229.6404517,N,08325.9899119,W,12.532,100.7,231110,0.0,E,D*13
$GPGSA,M,3,27,26,15,22,06,29,03,14,09,18,21,,1.4,0.8,1.1*3E
$GPGGA,005933.10,4229.6404,N,08325.9895,W,9,11,0.8,273.82,M,-34.70,M,06,0133*5F
$GPGST,005933.10,4.30,1.58,1.00,69.9676,1.53,1.09,2.31*5E
$GPRMC,005933.10,A,4229.6403708,N,08325.9894603,W,12.432,103.8,231110,0.0,E,D*15
$GPGSA,M,3,27,26,15,22,06,29,03,14,09,18,21,,1.4,0.8,1.1*3E
$GPGGA,005933.20,4229.6403,N,08325.9890,W,9,11,0.8,273.81,M,-34.70,M,06,0133*5D
$GPGST,005933.20,4.29,1.58,1.00,69.9569,1.52,1.09,2.31*59
$GPRMC,005933.20,A,4229.6402829,N,08325.9890109,W,12.419,106.2,231110,0.0,E,D*14
$GPGSA,M,3,27,26,15,22,06,03,14,09,18,21,,,1.5,0.9,1.2*36
$GPGGA,005933.30,4229.6403,N,08325.9885,W,9,10,0.9,274.03,M,-34.70,M,06,0133*55
$GPGST,005933.30,4.39,1.92,1.01,73.9238,1.87,1.11,2.66*55
$GPRMC,005933.30,A,4229.6402745,N,08325.9885444,W,12.384,108.5,231110,0.0,E,D*12
$GPGSA,M,3,27,26,15,22,06,29,03,14,09,18,21,,1.4,0.8,1.1*3E
$GPGGA,005933.40,4229.6401,N,08325.9881,W,9,11,0.8,273.83,M,-34.70,M,06,0133*5B
$GPGST,005933.40,4.30,1.58,1.00,69.9836,1.53,1.09,2.31*51
$GPRMC,005933.40,A,4229.6400911,N,08325.9881319,W,12.325,111.1,231110,0.0,E,D*14
$GPGSA,M,3,27,26,15,22,06,29,03,14,09,18,21,,1.4,0.8,1.1*3E
$GPGGA,005933.50,4229.6400,N,08325.9877,W,9,11,0.8,273.83,M,-34.70,M,02,0133*56
$GPGST,005933.50,4.29,1.58,1.00,69.9366,1.52,1.08,2.31*56
$GPRMC,005933.50,A,4229.6399529,N,08325.9877109,W,12.194,114.6,231110,0.0,E,D*15
$GPGSA,M,3,27,26,15,22,06,29,03,14,09,18,21,,1.4,0.8,1.1*3E
$GPGGA,005933.60,4229.6398,N,08325.9873,W,9,11,0.8,273.90,M,-34.70,M,02,0133*55
$GPGST,005933.60,4.29,1.58,1.00,69.9376,1.52,1.08,2.31*54
$GPRMC,005933.60,A,4229.6397835,N,08325.9872956,W,12.062,118.9,231110,0.0,E,D*14
$GPGSA,M,3,27,26,15,22,06,29,03,09,18,21,,,1.5,0.9,1.2*38
$GPGGA,005933.70,4229.6396,N,08325.9869,W,9,10,0.9,273.95,M,-34.70,M,02,0133*54
$GPGST,005933.70,2.08,1.59,1.00,69.7637,1.53,1.09,2.32*5C
$GPRMC,005933.70,A,4229.6396439,N,08325.9868896,W,11.974,120.4,231110,0.0,E,D*19
$GPGSA,M,3,27,26,15,22,06,29,03,09,18,21,,,1.5,0.9,1.2*38
$GPGGA,005933.80,4229.6395,N,08325.9865,W,9,10,0.9,273.79,M,-34.70,M,02,0133*56
$GPGST,005933.80,2.08,1.59,1.00,69.7635,1.53,1.09,2.32*51
$GPRMC,005933.80,A,4229.6395016,N,08325.9865283,W,12.134,122.9,231110,0.0,E,D*1F
$GPGSA,M,3,27,26,15,22,06,29,03,14,09,18,21,,1.4,0.8,1.1*3E
$GPGGA,005933.90,4229.6392,N,08325.9862,W,9,11,0.8,273.49,M,-34.70,M,02,0133*54
$GPGST,005933.90,2.31,1.50,1.00,70.6216,1.45,1.07,2.23*56
$GPRMC,005933.90,A,4229.6391781,N,08325.9862311,W,12.152,125.6,231110,0.0,E,D*16
$GPGSA,M,3,27,26,15,22,06,29,03,14,09,18,21,,1.4,0.8,1.1*3E
$GPGGA,005934.00,4229.6390,N,08325.9859,W,9,11,0.8,273.54,M,-34.70,M,03,0133*5D
$GPGST,005934.00,2.31,1.50,1.00,70.6235,1.45,1.07,2.23*59
$GPRMC,005934.00,A,4229.6389582,N,08325.9858596,W,12.141,128.5,231110,0.0,E,D*1C
$GPGSA,M,3,27,26,15,22,06,29,03,14,09,18,21,,1.4,0.8,1.1*3E
$GPGGA,005934.10,4229.6387,N,08325.9855,W,9,11,0.8,273.51,M,-34.70,M,03,0133*53
$GPGST,005934.10,2.31,1.50,1.00,70.6250,1.45,1.07,2.23*5B
$GPRMC,005934.10,A,4229.6387242,N,08325.9855100,W,12.189,130.0,231110,0.0,E,D*16
$GPGSA,M,3,27,26,15,22,06,29,03,14,09,18,21,,1.4,0.8,1.1*3E
$GPGGA,005934.20,4229.6385,N,08325.9852,W,9,11,0.8,273.49,M,-34.70,M,03,0133*5C
$GPGST,005934.20,2.29,1.50,1.00,70.7643,1.45,1.06,2.23*57
$GPRMC,005934.20,A,4229.6384908,N,08325.9851777,W,12.135,133.1,231110,0.0,E,D*14
$GPGSA,M,3,27,26,15,22,06,29,03,14,09,18,21,,1.4,0.8,1.1*3E
$GPGGA,005934.30,4229.6384,N,08325.9848,W,9,11,0.8,273.89,M,-34.70,M,03,0133*5B
$GPGST,005934.30,2.29,1.50,1.00,70.7663,1.45,1.06,2.23*54
$GPRMC,005934.30,A,4229.6384188,N,08325.9847795,W,12.182,136.5,231110,0.0,E,D*13
$GPGSA,M,3,27,26,15,22,06,03,09,18,21,,,,2.0,1.2,1.6*3B
$GPGGA,005934.40,4229.6383,N,08325.9844,W,9,09,1.2,274.06,M,-34.70,M,03,0133*55
$GPGST,005934.40,1.92,1.96,1.01,73.8394,1.90,1.11,2.69*5A
$GPRMC,005934.40,A,4229.6382524,N,08325.9844378,W,12.227,139.5,231110,0.0,E,D*17
$GPGSA,M,3,27,26,15,22,06,29,03,14,09,18,21,,1.4,0.8,1.1*3E
$GPGGA,005934.50,4229.6380,N,08325.9842,W,9,11,0.8,274.08,M,-34.70,M,02,0133*5C
$GPGST,005934.50,2.38,1.54,1.00,71.4669,1.49,1.07,2.27*57
$GPRMC,005934.50,A,4229.6379964,N,08325.9841893,W,12.523,143.0,231110,0.0,E,D*1A
$GPGSA,M,3,27,26,15,22,06,29,03,14,09,18,21,,1.4,0.8,1.1*3E
$GPGGA,005934.60,4229.6377,N,08325.9839,W,9,11,0.8,274.08,M,-34.70,M,02,0133*5B
$GPGST,005934.60,2.38,1.54,1.00,71.4678,1.49,1.07,2.27*54
$GPRMC,005934.60,A,4229.6377409,N,08325.9839052,W,12.261,142.4,231110,0.0,E,D*1F
$GPGSA,M,3,27,26,15,22,06,29,03,09,18,21,,,1.5,0.9,1.2*38
$GPGGA,005934.70,4229.6375,N,08325.9836,W,9,10,0.9,274.27,M,-34.70,M,02,0133*5A
$GPGST,005934.70,2.11,1.61,1.00,70.2294,1.56,1.09,2.34*5B
$GPRMC,005934.70,A,4229.6375396,N,08325.9835669,W,12.506,145.7,231110,0.0,E,D*1D
$GPGSA,M,3,27,26,15,22,06,29,03,14,09,18,21,,1.4,0.8,1.1*3E
$GPGGA,005934.80,4229.6369,N,08325.9835,W,9,11,0.8,273.33,M,-34.70,M,02,0133*59
$GPGST,005934.80,2.29,1.51,1.00,71.2110,1.46,1.06,2.24*5D
$GPRMC,005934.80,A,4229.6369079,N,08325.9835344,W,12.581,147.7,231110,0.0,E,D*1A
$GPGSA,M,3,27,26,15,22,06,29,03,14,09,18,21,,1.4,0.8,1.1*3E
$GPGST,005934.90,2.27,1.49,1.00,70.8237,1.45,1.06,2.23*52
$GPGGA,005934.90,4229.6367,N,08325.9832,W,9,11,0.8,273.51,M,-34.70,M,02,0133*55
$GPRMC,005934.90,A,4229.6366724,N,08325.9832427,W,12.753,151.9,231110,0.0,E,D*1A
$GPGSA,M,3,27,26,15,22,06,03,14,09,18,21,,,1.5,0.9,1.2*36
$GPGGA,005935.00,4229.6362,N,08325.9831,W,9,10,0.9,273.07,M,-34.70,M,03,0133*59
$GPGST,005935.00,2.16,1.70,1.01,74.7645,1.66,1.07,2.43*5F
$GPRMC,005935.00,A,4229.6361718,N,08325.9830607,W,12.787,154.3,231110,0.0,E,D*1E
$GPGSA,M,3,27,26,15,22,06,03,14,09,18,21,,,1.5,0.9,1.2*36
$GPGGA,005935.10,4229.6359,N,08325.9828,W,9,10,0.9,273.18,M,-34.70,M,03,0133*56
$GPGST,005935.10,2.10,1.66,1.01,74.9712,1.62,1.06,2.39*5A
$GPRMC,005935.10,A,4229.6359052,N,08325.9828324,W,12.725,155.5,231110,0.0,E,D*1F
$GPGSA,M,3,27,26,15,22,06,03,14,09,18,21,,,1.5,0.9,1.2*36
$GPGGA,005935.20,4229.6356,N,08325.9826,W,9,10,0.9,273.17,M,-34.70,M,03,0133*5B
$GPGST,005935.20,2.10,1.66,1.01,74.9595,1.62,1.06,2.39*54
$GPRMC,005935.20,A,4229.6355880,N,08325.9826369,W,12.567,156.2,231110,0.0,E,D*10
$GPGSA,M,3,27,26,15,22,06,03,14,09,18,21,,,1.5,0.9,1.2*36
$GPGGA,005935.30,4229.6353,N,08325.9825,W,9,10,0.9,273.19,M,-34.70,M,03,0133*52
$GPGST,005935.30,2.10,1.66,1.01,74.9614,1.62,1.06,2.39*5F
$GPRMC,005935.30,A,4229.6352603,N,08325.9824531,W,12.825,158.4,231110,0.0,E,D*19
$GPGSA,M,3,27,26,15,22,06,03,14,09,18,21,,,1.5,0.9,1.2*36
$GPGGA,005935.40,4229.6349,N,08325.9823,W,9,10,0.9,273.17,M,-34.70,M,03,0133*56
$GPGST,005935.40,2.10,1.66,1.01,74.9531,1.62,1.06,2.39*5C
$GPRMC,005935.40,A,4229.6349265,N,08325.9822890,W,12.962,160.8,231110,0.0,E,D*15
$GPGSA,M,3,27,26,15,22,06,03,14,09,18,21,,,1.5,0.9,1.2*36
$GPGGA,005935.50,4229.6347,N,08325.9821,W,9,10,0.9,273.48,M,-34.70,M,02,0133*50
$GPGST,005935.50,2.10,1.66,1.01,74.9495,1.62,1.06,2.39*52
$GPRMC,005935.50,A,4229.6347193,N,08325.9820788,W,12.985,162.7,231110,0.0,E,D*10
$GPGSA,M,3,27,26,15,22,06,29,03,14,09,18,21,,1.4,0.8,1.1*3E
$GPGGA,005935.60,4229.6344,N,08325.9819,W,9,11,0.8,273.65,M,-34.70,M,02,0133*54
$GPGST,005935.60,2.20,1.46,1.00,70.5419,1.42,1.06,2.20*57
$GPRMC,005935.60,A,4229.6344470,N,08325.9819285,W,13.035,164.9,231110,0.0,E,D*11
$GPGSA,M,3,27,26,15,22,06,29,03,14,09,18,21,,1.4,0.8,1.1*3E
$GPGGA,005935.70,4229.6341,N,08325.9818,W,9,11,0.8,273.64,M,-34.70,M,02,0133*50
$GPGST,005935.70,2.19,1.46,1.00,70.4877,1.42,1.06,2.19*53
$GPRMC,005935.70,A,4229.6340916,N,08325.9818121,W,13.030,166.5,231110,0.0,E,D*1E
$GPGSA,M,3,27,26,15,22,06,29,03,14,09,18,21,,1.4,0.8,1.1*3E
$GPGGA,005935.80,4229.6337,N,08325.9817,W,9,11,0.8,273.69,M,-34.70,M,02,0133*5C
$GPGST,005935.80,2.19,1.46,1.00,70.4884,1.42,1.06,2.19*50
$GPRMC,005935.80,A,4229.6337257,N,08325.9816999,W,13.055,168.8,231110,0.0,E,D*1A
$GPGSA,M,3,27,26,15,22,06,29,03,09,18,21,,,1.5,0.9,1.2*38
$GPGST,005935.90,2.05,1.57,1.00,69.2784,1.51,1.09,2.29*53
$GPGGA,005935.90,4229.6335,N,08325.9815,W,9,10,0.9,273.95,M,-34.70,M,02,0133*5E
$GPRMC,005935.90,A,4229.6334742,N,08325.9815449,W,13.088,171.1,231110,0.0,E,D*1B
$GPGSA,M,3,27,26,15,22,06,29,03,09,18,21,,,1.5,0.9,1.2*38
$GPGST,005936.00,2.05,1.57,1.00,69.2783,1.51,1.09,2.29*5E
$GPGGA,005936.00,4229.6331,N,08325.9815,W,9,10,0.9,274.01,M,-34.70,M,03,0133*5B
$GPRMC,005936.00,A,4229.6331091,N,08325.9814650,W,12.967,172.3,231110,0.0,E,D*1E
$GPGSA,M,3,27,26,15,22,06,29,03,09,18,21,,,1.5,0.9,1.2*38
$GPGGA,005936.10,4229.6328,N,08325.9814,W,9,10,0.9,274.02,M,-34.70,M,03,0133*50
$GPGST,005936.10,2.05,1.57,1.00,69.2501,1.51,1.09,2.29*57
$GPRMC,005936.10,A,4229.6327568,N,08325.9814057,W,12.906,173.9,231110,0.0,E,D*16
$GPGSA,M,3,27,26,15,22,06,29,03,09,18,21,,,1.5,0.9,1.2*38
$GPGGA,005936.20,4229.6324,N,08325.9814,W,9,10,0.9,274.03,M,-34.70,M,03,0133*5E
$GPGST,005936.20,2.05,1.57,1.00,69.2500,1.51,1.09,2.29*55
$GPRMC,005936.20,A,4229.6323995,N,08325.9813578,W,12.962,175.3,231110,0.0,E,D*1E
$GPGSA,M,3,27,26,15,22,06,29,03,09,18,21,,,1.5,0.9,1.2*38
$GPGGA,005936.30,4229.6320,N,08325.9813,W,9,10,0.9,274.02,M,-34.70,M,03,0133*5D
$GPGST,005936.30,2.05,1.57,1.00,69.2504,1.51,1.09,2.29*50
$GPRMC,005936.30,A,4229.6320344,N,08325.9813311,W,12.726,177.1,231110,0.0,E,D*1D
$GPGSA,M,3,27,26,15,22,06,29,03,09,18,21,,,1.5,0.9,1.2*38
$GPGGA,005936.40,4229.6317,N,08325.9813,W,9,10,0.9,274.03,M,-34.70,M,03,0133*5F
$GPGST,005936.40,2.05,1.57,1.00,69.1260,1.51,1.09,2.31*58
$GPRMC,005936.40,A,4229.6316801,N,08325.9813078,W,12.720,178.6,231110,0.0,E,D*17
$GPGSA,M,3,27,26,15,22,06,29,03,09,18,21,,,1.5,0.9,1.2*38
$GPGGA,005936.50,4229.6313,N,08325.9813,W,9,10,0.9,274.00,M,-34.70,M,03,0133*59
$GPGST,005936.50,2.05,1.57,1.00,69.1267,1.51,1.09,2.31*5E
$GPRMC,005936.50,A,4229.6313180,N,08325.9813082,W,12.652,180.5,231110,0.0,E,D*16
$GPGSA,M,3,27,26,15,22,06,29,03,09,18,21,,,1.5,0.9,1.2*38
$GPGGA,005936.60,4229.6310,N,08325.9813,W,9,10,0.9,273.99,M,-34.70,M,03,0133*5E
$GPGST,005936.60,2.05,1.57,1.00,69.1132,1.51,1.09,2.31*5E
$GPRMC,005936.60,A,4229.6309707,N,08325.9813166,W,12.536,181.5,231110,0.0,E,D*1C
$GPGSA,M,3,27,26,15,22,06,29,03,09,18,21,,,1.5,0.9,1.2*38
$GPGGA,005936.70,4229.6306,N,08325.9813,W,9,10,0.9,273.99,M,-34.70,M,03,0133*58
$GPGST,005936.70,2.05,1.57,1.00,69.1138,1.51,1.09,2.31*55
$GPRMC,005936.70,A,4229.6306175,N,08325.9813337,W,12.555,182.7,231110,0.0,E,D*13
$GPGSA,M,3,27,26,15,22,06,29,03,09,18,21,,,1.5,0.9,1.2*38
$GPGGA,005936.80,4229.6303,N,08325.9814,W,9,10,0.9,274.01,M,-34.70,M,03,0133*53
$GPGST,005936.80,2.05,1.57,1.00,69.0925,1.51,1.09,2.31*5F
$GPRMC,005936.80,A,4229.6302666,N,08325.9813607,W,12.382,184.8,231110,0.0,E,D*1E
$GPGSA,M,3,27,26,15,22,06,29,03,09,18,21,,,1.5,0.9,1.2*38
$GPGGA,005936.90,4229.6299,N,08325.9814,W,9,10,0.9,274.05,M,-34.70,M,03,0133*54
$GPGST,005936.90,2.05,1.57,1.00,69.1194,1.51,1.09,2.31*5D
$GPRMC,005936.90,A,4229.6299319,N,08325.9813992,W,12.392,185.7,231110,0.0,E,D*1D
$GPGSA,M,3,27,26,15,22,06,29,03,09,18,21,,,1.5,0.9,1.2*38
$GPGGA,005937.00,4229.6296,N,08325.9815,W,9,10,0.9,274.05,M,-34.70,M,04,0133*55
$GPGST,005937.00,2.05,1.57,1.00,69.1202,1.51,1.09,2.31*59
$GPRMC,005937.00,A,4229.6295906,N,08325.9814537,W,12.392,187.2,231110,0.0,E,D*1E
$GPGSA,M,3,27,26,15,22,06,29,03,09,18,21,,,1.5,0.9,1.2*38
$GPGGA,005937.10,4229.6293,N,08325.9815,W,9,10,0.9,274.06,M,-34.70,M,04,0133*52
$GPGST,005937.10,2.05,1.57,1.00,69.0968,1.51,1.09,2.31*5E
$GPRMC,005937.10,A,4229.6292587,N,08325.9815148,W,12.296,188.4,231110,0.0,E,D*1C
$GPGSA,M,3,27,26,15,22,06,29,03,09,18,21,,,1.5,0.9,1.2*38
$GPGGA,005937.20,4229.6289,N,08325.9816,W,9,10,0.9,274.08,M,-34.70,M,04,0133*57
$GPGST,005937.20,2.05,1.57,1.00,69.0986,1.51,1.09,2.31*5D
$GPRMC,005937.20,A,4229.6289153,N,08325.9815852,W,12.227,190.1,231110,0.0,E,D*1C
$GPGSA,M,3,27,26,15,22,06,29,03,09,18,21,,,1.5,0.9,1.2*38
$GPGGA,005937.30,4229.6286,N,08325.9817,W,9,10,0.9,274.07,M,-34.70,M,04,0133*57
$GPGST,005937.30,2.05,1.57,1.00,69.1147,1.51,1.09,2.31*58
$GPRMC,005937.30,A,4229.6285764,N,08325.9816709,W,12.243,191.2,231110,0.0,E,D*11
$GPGSA,M,3,27,26,15,22,06,29,03,09,18,21,,,1.5,0.9,1.2*38
$GPGST,005937.40,2.05,1.57,1.00,69.1164,1.51,1.09,2.31*5E
$GPGGA,005937.40,4229.6283,N,08325.9818,W,9,10,0.9,274.05,M,-34.70,M,04,0133*58
$GPRMC,005937.40,A,4229.6282535,N,08325.9817702,W,12.153,192.9,231110,0.0,E,D*17
$GPGSA,M,3,27,26,15,22,06,29,03,09,18,21,,,1.5,0.9,1.2*38
$GPGGA,005937.50,4229.6279,N,08325.9819,W,9,10,0.9,274.02,M,-34.70,M,04,0133*5A
$GPGST,005937.50,2.05,1.57,1.00,69.1173,1.51,1.09,2.31*59
$GPRMC,005937.50,A,4229.6279154,N,08325.9818794,W,12.148,194.2,231110,0.0,E,D*16
$GPGSA,M,3,27,26,15,22,06,29,03,14,09,18,21,,1.4,0.8,1.1*3E
$GPGGA,005937.60,4229.6276,N,08325.9820,W,9,11,0.8,274.01,M,-34.70,M,04,0133*5F
$GPGST,005937.60,4.28,1.56,1.00,69.1657,1.50,1.09,2.30*53
$GPRMC,005937.60,A,4229.6275689,N,08325.9819988,W,12.032,195.8,231110,0.0,E,D*1B
